[
          {
            "name": "University of Illinois, Urbana Champaign",
            "website": "http://www.illinois.edu",
            "colors": "Illinois_Blue, Illinois_Orange",
            "logo": "http://upload.wikimedia.org/wikipedia/en/1/18/UIUC_seal.svg",
            "lat": 40.1105,
            "lng": -88.2284,
            "city": "Champaign",
            "state": "Illinois",
            "address": "901 West Illinois Street",
            "zip": "61801"  
          },
          {     
            "name": "Stanford University",
            "website": "http://www.stanford.edu",
            "colors": "Cardinal, White",
            "logo": "http://upload.wikimedia.org/wikipedia/en/b/b7/Stanford_University_seal_2003.svg",
            "lat": 37.4300,
            "lng": 122.1700,
            "city": "Stanford",
            "state": "California",
            "address": "450 Serra Mall",
            "zip": "94305"
          }, 
          {
            "name": "University of Michigan, Ann Arbor",
            "website": "http://www.umich.edu",
            "colors": "Maize, Blue",
            "logo": "http://upload.wikimedia.org/wikipedia/en/b/b8/Umichigan_color_seal.png",
            "lat": 42.2828,
            "lng": 83.7347,
            "city": "Ann Arbor",
            "state": "Michigan",
            "address": "500 S State Street",
            "zip": "48109"
          },
          {
            "name": "Indiana University",
            "website": "http://www.iub.edu",
            "colors":"Cream, Crimson",
            "logo": "http://upload.wikimedia.org/wikipedia/en/5/5d/Indiana_University_seal.svg",
            "lat": 39.1768,
            "lng": 86.5197,
            "city": "Bloomington",
            "state": "Indiana",
            "address": "107 S Indiana Ave",
            "zip": "47405"
          },
          {
            "name": "University of California, Berkeley", 
            "website": "http://www.berkeley.edu",
            "colors": "Yale Blue, California Gold",
            "logo": "http://upload.wikimedia.org/wikipedia/commons/f/fc/The_University_of_California_1868.svg", 
            "lat": 37.8700,
            "lng": 122.2590,
            "city": "Berkeley",
            "state": "California",
            "address": "103 Sproul Hall",
            "zip": "94720"
          },
          {"website": "wesleyan.edu", "city": "Middletown", "name": "Wesleyan University", "zip": "06459", "state": "Connecticut", "colors": "None", "address": "Wesleyan University, 45 Wyllys Avenue, Middletown, CT 06459, USA", "lat": 41.5566, "logo": "upload.wikimedia.org/wikipedia/en/thumb/3/31/Wesleyan_University_Shield.svg/200px-Wesleyan_University_Shield.svg.png", "lng": -72.6569},
          {"website": "www.sacredheart.edu", "city": "Fairfield", "name": "Sacred Heart University", "zip": "06825", "state": "Connecticut", "colors": "None", "address": "Sacred Heart University, 5151 Park Avenue, Fairfield, CT 06825, USA", "lat": 41.2217, "logo": "upload.wikimedia.org/wikipedia/en/thumb/5/59/Sacred_Heart_University_seal.svg/200px-Sacred_Heart_University_seal.svg.png", "lng": -73.2421},
          {"website": "quinnipiac.edu", "city": "Hamden", "name": "Quinnipiac University", "zip": "06518", "state": "Connecticut", "colors": "None", "address": "Quinnipiac University - Mount Carmel Campus, 275 Mount Carmel Avenue, Hamden, CT 06518, USA", "lat": 41.4203, "logo": "upload.wikimedia.org/wikipedia/en/thumb/8/87/Quinnipiac_University_Seal.svg/220px-Quinnipiac_University_Seal.svg.png", "lng": -72.8947},
          {"website": "http://www.post.edu", "city": "Waterbury", "name": "Post University", "zip": "06708", "state": "Connecticut", "colors": "None", "address": "Post University, 800 Country Club Road, Waterbury, CT 06708, USA", "lat": 41.5354, "logo": "upload.wikimedia.org/wikipedia/en/thumb/e/e5/Post_University.svg/220px-Post_University.svg.png", "lng": -73.0815},
          {"website": "www.newhaven.edu", "city": "West Haven", "name": "University of New Haven", "zip": "06516", "state": "Connecticut", "colors": "None", "address": "University of New Haven, 300 Boston Post Road, West Haven, CT 06516, USA", "lat": 41.2916, "logo": "upload.wikimedia.org/wikipedia/en/thumb/b/ba/University_of_New_Haven_logo.jpg/200px-University_of_New_Haven_logo.jpg", "lng": -72.9616},
          {"website": "www.uvi.edu", "city": "Charlotte Amalie West", "name": "University of the Virgin Islands", "zip": "00802", "state": "St. Thomas", "colors": "None", "address": "University of the Virgin Islands, Charlotte Amalie West, St. Thomas 00802, USVI", "lat": 18.3422, "logo": "upload.wikimedia.org/wikipedia/en/thumb/5/51/UVI_Seal.png/150px-UVI_Seal.png", "lng": -64.9727},
          {"website": "hilo.hawaii.edu", "city": "Hilo", "name": "University of Hawaii at Hilo", "zip": "96720", "state": "HI", "colors": "None", "address": "University of Hawaii at Hilo, Hilo, HI 96720", "lat": 19.7002, "logo": "upload.wikimedia.org/wikipedia/en/thumb/f/f8/UH_Hilo_2010_Seal.jpg/100px-UH_Hilo_2010_Seal.jpg", "lng": -155.0817},
          {"website": "www.chaminade.edu", "city": "Honolulu", "name": "Chaminade University of Honolulu", "zip": "96816", "state": "Hawaii", "colors": "None", "address": "Chaminade University, 3140 Waialae Avenue, Honolulu, HI 96816, USA", "lat": 21.2906, "logo": "upload.wikimedia.org/wikipedia/en/thumb/2/28/ChaminadeSeal.png/200px-ChaminadeSeal.png", "lng": -157.8074},
          {"website": "http://uhwo.hawaii.edu", "city": "Kapolei", "name": "University of Hawaii-West Oahu", "zip": "96707", "state": "Hawaii", "colors": "None", "address": "University of Hawai'i - West O'ahu, 91-1001 Farrington Highway, Kapolei, HI 96707, USA", "lat": 21.3545, "logo": "upload.wikimedia.org/wikipedia/en/thumb/8/80/UH_West_Oahu_seal.jpg/150px-UH_West_Oahu_seal.jpg", "lng": -158.0552},
          {"website": "Manoa.Hawaii.edu", "city": "Honolulu", "name": "University of Hawaii at Manoa", "zip": "96822", "state": "Hawaii", "colors": "None", "address": "University of Hawaii at Manoa, 2500 Campus Road, Honolulu, HI 96822, USA", "lat": 21.2998, "logo": "upload.wikimedia.org/wikipedia/en/8/8e/University_of_Hawaii_seal.png", "lng": -157.8176},
          {"website": "www.nnu.edu", "city": "Nampa", "name": "Northwest Nazarene University", "zip": "83686", "state": "Idaho", "colors": "None", "address": "Northwest Nazarene University, 623 South University Boulevard, Nampa, ID 83686, USA", "lat": 43.5631, "logo": "upload.wikimedia.org/wikipedia/en/thumb/d/dd/NNUseal.png/150px-NNUseal.png", "lng": -116.5669},
          {"website": "isu.edu", "city": "Pocatello", "name": "Idaho State University", "zip": "83201", "state": "Idaho", "colors": "None", "address": "Idaho State University, 921 South 8th Avenue, Pocatello, ID 83201, USA", "lat": 42.8615, "logo": "upload.wikimedia.org/wikipedia/en/thumb/7/7f/Idaho_State_University_Seal.svg/200px-Idaho_State_University_Seal.svg.png", "lng": -112.4331},
          {"website": "uidaho.edu", "city": "Moscow", "name": "University of Idaho", "zip": "83844", "state": "Idaho", "colors": "None", "address": "University of Idaho, 709 South Deakin Street, Moscow, ID 83844, USA", "lat": 46.7288, "logo": "upload.wikimedia.org/wikipedia/en/thumb/4/44/University_of_Idaho_seal.svg/200px-University_of_Idaho_seal.svg.png", "lng": -117.0126},
          {"website": "www.byui.edu", "city": "Rexburg", "name": "Brigham Young University-Idaho", "zip": "83460", "state": "Idaho", "colors": "None", "address": "Brigham Young University Idaho, 525 South Center Street, Rexburg, ID 83460, USA", "lat": 43.8126, "logo": "upload.wikimedia.org/wikipedia/commons/thumb/3/36/BYU-Idaho_Medallion_Logo.svg/200px-BYU-Idaho_Medallion_Logo.svg.png", "lng": -111.7853},
          {"website": "boisestate.edu", "city": "Boise", "name": "Boise State University", "zip": "83725", "state": "Idaho", "colors": "None", "address": "Boise State University, 1910 University Drive, Boise, ID 83725, USA", "lat": 43.6036, "logo": "upload.wikimedia.org/wikipedia/en/thumb/2/25/BoiseStateSeal.png/150px-BoiseStateSeal.png", "lng": -116.2087},
          {"website": "http://www.msun.edu/", "city": "Havre", "name": "Montana State University-Northern", "zip": "59501", "state": "Montana", "colors": "None", "address": "Montana State University - Northern, 300 13th streeet West, Havre, MT 59501, USA", "lat": 48.5412, "logo": "upload.wikimedia.org/wikipedia/en/thumb/d/d7/Montana_State_University_Northern.svg/150px-Montana_State_University_Northern.svg.png", "lng": -109.688},
          {"website": "www.montana.edu", "city": "Bozeman", "name": "Montana State University", "zip": "59717", "state": "Montana", "colors": "None", "address": "Montana State University, Bozeman, MT 59717, USA", "lat": 45.6676, "logo": "upload.wikimedia.org/wikipedia/en/thumb/d/d5/MontanaStateUniversity_Seal.svg/200px-MontanaStateUniversity_Seal.svg.png", "lng": -111.0494},
          {"website": "www.msubillings.edu", "city": "Billings", "name": "Montana State University Billings", "zip": "59101", "state": "Montana", "colors": "None", "address": "Montana State University Billings, 1500 University Dr, Billings, MT 59101, USA", "lat": 45.7969, "logo": "upload.wikimedia.org/wikipedia/en/0/06/MSUBillingsNewLogo.gif", "lng": -108.5222},
          {"website": "http://www.umt.edu/law/", "city": "Missoula", "name": "University of Montana School of Law", "zip": "59812", "state": "Montana", "colors": "None", "address": "University of Montana School of Law, 32 Campus Drive, Missoula, MT 59812, USA", "lat": 46.8634, "logo": "upload.wikimedia.org/wikipedia/en/5/56/Montana_School_of_law.jpg", "lng": -113.9863},
          {"website": "www.umhelena.edu", "city": "Helena", "name": "Helena College University of Montana", "zip": "59601", "state": "Montana", "colors": "None", "address": "Montana University System, 2500 Broadway Street, Helena, MT 59601, USA", "lat": 46.5852, "logo": "upload.wikimedia.org/wikipedia/en/thumb/e/e4/Helena_COT.gif/220px-Helena_COT.gif", "lng": -111.9968},
          {"website": "umt.edu", "city": "Missoula", "name": "University of Montana", "zip": "59812", "state": "Montana", "colors": "None", "address": "University of Montana, 32 Campus Drive, Missoula, MT 59812, USA", "lat": 46.8601, "logo": "upload.wikimedia.org/wikipedia/en/4/41/University_seal.png", "lng": -113.9852},
          {"website": "www.ugf.edu", "city": "Great Falls", "name": "University of Great Falls", "zip": "59405", "state": "Montana", "colors": "None", "address": "University of Great Falls, 1301 20th Street South, Great Falls, MT 59405, USA", "lat": 47.4897, "logo": "upload.wikimedia.org/wikipedia/en/0/0f/UGF_Logo.jpg", "lng": -111.2708},
          {"website": "www.umwestern.edu", "city": "Dillon", "name": "University of Montana Western", "zip": "59725", "state": "Montana", "colors": "None", "address": "The University of Montana Western, 710 South Atlantic Street, Dillon, MT 59725, USA", "lat": 45.2084, "logo": "upload.wikimedia.org/wikipedia/en/thumb/9/91/MT_western.jpg/200px-MT_western.jpg", "lng": -112.641},
          {"website": "umt.edu", "city": "Missoula", "name": "University of Montana", "zip": "59812", "state": "Montana", "colors": "None", "address": "University of Montana, 32 Campus Drive, Missoula, MT 59812, USA", "lat": 46.8601, "logo": "upload.wikimedia.org/wikipedia/en/4/41/University_seal.png", "lng": -113.9852},
          {"website": "http://www.santafeuniversity.edu/", "city": "Santa Fe", "name": "Santa Fe University of Art and Design", "zip": "87505", "state": "New Mexico", "colors": "None", "address": "Santa Fe University of Art and Design, 1600 Saint Michaels Drive, Santa Fe, NM 87505, USA", "lat": 35.6565, "logo": "upload.wikimedia.org/wikipedia/en/6/62/Santa_Fe_University_of_Art_and_Design_logo_2012.png", "lng": -105.9773},
          {"website": "www.wnmu.edu", "city": "Silver City", "name": "Western New Mexico University", "zip": "88062", "state": "New Mexico", "colors": "None", "address": "Western New Mexico University, 1000 West College Avenue, Silver City, NM 88062, USA", "lat": 32.7754, "logo": "upload.wikimedia.org/wikipedia/en/thumb/5/5b/Western_New_Mexico_University_Logo.png/220px-Western_New_Mexico_University_Logo.png", "lng": -108.2849},
          {"website": "tun.touro.edu", "city": "Henderson", "name": "Touro University Nevada", "zip": "89014", "state": "Nevada", "colors": "None", "address": "Touro University Nevada, 874 American Pacific Drive, Henderson, NV 89014, USA", "lat": 36.0433, "logo": "upload.wikimedia.org/wikipedia/commons/thumb/9/9d/TUN.logo.square.png/200px-TUN.logo.square.png", "lng": -115.024},
          {"website": "www.oc.edu", "city": "Edmond", "name": "Oklahoma Christian University", "zip": "73136", "state": "Oklahoma", "colors": "None", "address": "Oklahoma Christian University, 2501 East Memorial Road, Edmond, OK 73136, USA", "lat": 35.6109, "logo": "upload.wikimedia.org/wikipedia/en/e/ea/Oklahoma_Christian_University_small_web_logo.jpg", "lng": -97.4686},
          {"website": "www.emporia.edu", "city": "Emporia", "name": "Emporia State University", "zip": "66801", "state": "Kansas", "colors": "None", "address": "Emporia State University, 1200 Commercial Street, Emporia, KS 66801, USA", "lat": 38.4138, "logo": "upload.wikimedia.org/wikipedia/en/thumb/0/06/Emporia_State_University_seal.png/200px-Emporia_State_University_seal.png", "lng": -96.1801},
          {"website": "erau.edu", "city": "Daytona Beach", "name": "Embry-Riddle Aeronautical University", "zip": "32114", "state": "Florida", "colors": "None", "address": "Embry-Riddle Aeronautical University, 600 South Clyde Morris Boulevard, Daytona Beach, FL 32114, USA", "lat": 29.1899, "logo": "upload.wikimedia.org/wikipedia/en/thumb/a/a5/Embry-Riddle_Aeronautical_University_Seal.png/220px-Embry-Riddle_Aeronautical_University_Seal.png", "lng": -81.0482},
          {"website": "www.uws.edu", "city": "Portland", "name": "University of Western States", "zip": "97230", "state": "Oregon", "colors": "None", "address": "University of Western States, 2900 Northeast 132nd Avenue, Portland, OR 97230, USA", "lat": 45.5433, "logo": "upload.wikimedia.org/wikipedia/commons/thumb/d/d6/University_of_Western_States_-_Portland%2C_Oregon.JPG/200px-University_of_Western_States_-_Portland%2C_Oregon.JPG", "lng": -122.524},
          {"website": "georgefox.edu", "city": "Newberg", "name": "George Fox University", "zip": "97132", "state": "Oregon", "colors": "None", "address": "George Fox University: Newberg Campus, 414 North Meridian Street, Newberg, OR 97132, USA", "lat": 45.3032, "logo": "upload.wikimedia.org/wikipedia/en/f/fe/George_Fox_University_%28logo%29.png", "lng": -122.9666},
          {"website": "www.eou.edu/", "city": "La Grande", "name": "Eastern Oregon University", "zip": "97850", "state": "Oregon", "colors": "None", "address": "Eastern Oregon University, 1 University Blvd, La Grande, OR 97850, USA", "lat": 45.3198, "logo": "upload.wikimedia.org/wikipedia/en/thumb/f/f1/EasternOregonULogo.png/200px-EasternOregonULogo.png", "lng": -118.0885},
          {"website": "Corban.edu", "city": "Salem", "name": "Corban University", "zip": "97317", "state": "Oregon", "colors": "None", "address": "Corban University, 5000 Deer Park Drive Southeast, Salem, OR 97317, USA", "lat": 44.883, "logo": "upload.wikimedia.org/wikipedia/commons/thumb/7/7e/Corban_College_clock_tower_valley_view.JPG/250px-Corban_College_clock_tower_valley_view.JPG", "lng": -122.9589},
          {"website": "Willamette.edu", "city": "Salem", "name": "Willamette University", "zip": "97301", "state": "Oregon", "colors": "None", "address": "Willamette University, 900 State Street, Salem, OR 97301, USA", "lat": 44.9371, "logo": "upload.wikimedia.org/wikipedia/en/thumb/6/60/WillametteUniversitySeal.png/225px-WillametteUniversitySeal.png", "lng": -123.0318},
          {"website": "Webster.edu", "city": "Webster Groves", "name": "Webster University", "zip": "63119", "state": "Missouri", "colors": "None", "address": "Webster University, 470 East Lockwood Avenue, Webster Groves, MO 63119, USA", "lat": 38.5906, "logo": "upload.wikimedia.org/wikipedia/commons/thumb/9/94/Webster_University%27s_Webster_Hall_-_2012.JPG/300px-Webster_University%27s_Webster_Hall_-_2012.JPG", "lng": -90.3454},
          {"website": "http://www.gw.edu", "city": "Salt Lake City", "name": "George Wythe University", "zip": "84103", "state": "Utah", "colors": "None", "address": "George Wythe University, 275 East South Temple, Salt Lake City, UT 84103, USA", "lat": 40.7697, "logo": "upload.wikimedia.org/wikipedia/en/thumb/7/73/GWuniversity_seal.png/150px-GWuniversity_seal.png", "lng": -111.8831},
          {"website": "www.enmu.edu", "city": "Portales", "name": "Eastern New Mexico University", "zip": "88130", "state": "New Mexico", "colors": "None", "address": "Eastern New Mexico University, 1500 South Avenue K, Portales, NM 88130, USA", "lat": 34.1789, "logo": "upload.wikimedia.org/wikipedia/en/9/92/AE-A-T-enmuseal.png", "lng": -103.3479},
          {"website": "www.uprp.edu", "city": "Ponce", "name": "University of Puerto Rico at Ponce", "zip": "00734", "state": "Ponce", "colors": "None", "address": "University of Puerto Rico at Ponce, Ave Santiago De Los Caballeros, Ponce, 00734, Puerto Rico", "lat": 17.9928, "logo": "upload.wikimedia.org/wikipedia/en/thumb/d/dd/UPR_at_Ponce_Seal.svg/220px-UPR_at_Ponce_Seal.svg.png", "lng": -66.6072},
          {"website": "www.pupr.edu", "city": "San Juan", "name": "Polytechnic University of Puerto Rico", "zip": "00918", "state": "San Juan", "colors": "None", "address": "Polytechnic University of Puerto Rico, 377 Ponce De Leon Avenue, San Juan, 00918, Puerto Rico", "lat": 18.4224, "logo": "upload.wikimedia.org/wikipedia/commons/1/1b/PolytechnicUniversityofPuertoRicoLogo.jpg", "lng": -66.0556},
          {"website": "www.inter.edu", "city": "San Juan", "name": "Interamerican University of Puerto Rico", "zip": "00927", "state": "San Juan", "colors": "None", "address": "Interamerican University of Puerto Rico Metropolitan Campus, San Juan, 00927, Puerto Rico", "lat": 18.3692, "logo": "upload.wikimedia.org/wikipedia/en/thumb/5/51/IAU_logo.gif/220px-IAU_logo.gif", "lng": -66.078},
          {"website": "phoenix.edu", "city": "Phoenix", "name": "University of Phoenix", "zip": "85040", "state": "Arizona", "colors": "None", "address": "University of Phoenix, 4615 East Elwood Street, Phoenix, AZ 85040, USA", "lat": 33.4123, "logo": "upload.wikimedia.org/wikipedia/en/thumb/6/63/University_of_Phoenix_logo.png/225px-University_of_Phoenix_logo.png", "lng": -111.9802},
          {"website": "www.northwestu.edu", "city": "Xi'an", "name": "Northwest University", "zip": "710021", "state": "Shaanxi", "colors": "None", "address": "Northwest University, 229 Taibai North Road, 2nd Ring Road Yanxian Commerce Jingjidai, Beilin, Xi'an, Shaanxi, China, 710021", "lat": 34.2501, "logo": "upload.wikimedia.org/wikipedia/en/thumb/9/99/Northwest_university_transparent_logo.png/220px-Northwest_university_transparent_logo.png", "lng": 108.9267},
          {"website": "www.seattleu.edu", "city": "Seattle", "name": "Seattle University", "zip": "98122", "state": "Washington", "colors": "None", "address": "Seattle University, 901 12th Avenue, Seattle, WA 98122, USA", "lat": 47.6106, "logo": "upload.wikimedia.org/wikipedia/en/thumb/b/b0/Seattle_University_Seal.svg/220px-Seattle_University_Seal.svg.png", "lng": -122.3172},
          {"website": "www.spu.edu", "city": "Seattle", "name": "Seattle Pacific University", "zip": "98119", "state": "Washington", "colors": "None", "address": "Seattle Pacific University, 3307 3rd Avenue West, Seattle, WA 98119, USA", "lat": 47.6503, "logo": "upload.wikimedia.org/wikipedia/en/thumb/c/cc/Seattle_Pacific_University_%28logo%29.png/220px-Seattle_Pacific_University_%28logo%29.png", "lng": -122.3611},
          {"website": "www.northwestu.edu", "city": "Xi'an", "name": "Northwest University", "zip": "710021", "state": "Shaanxi", "colors": "None", "address": "Northwest University, 229 Taibai North Road, 2nd Ring Road Yanxian Commerce Jingjidai, Beilin, Xi'an, Shaanxi, China, 710021", "lat": 34.2501, "logo": "upload.wikimedia.org/wikipedia/en/thumb/9/99/Northwest_university_transparent_logo.png/220px-Northwest_university_transparent_logo.png", "lng": 108.9267},
          {"website": "plu.edu", "city": "Tacoma", "name": "Pacific Lutheran University", "zip": "98447", "state": "Washington", "colors": "None", "address": "Pacific Lutheran University, 12180 Park Avenue South, Tacoma, WA 98447, USA", "lat": 47.1465, "logo": "upload.wikimedia.org/wikipedia/en/thumb/3/3e/SealofPLU.png/200px-SealofPLU.png", "lng": -122.4418},
          {"website": "northeastern.edu", "city": "Boston", "name": "Northeastern University", "zip": "02115", "state": "Massachusetts", "colors": "None", "address": "Northeastern University, 360 Huntington Avenue, Boston, MA 02115, USA", "lat": 42.3398, "logo": "upload.wikimedia.org/wikipedia/en/thumb/f/f5/Northeastern-seal.svg/225px-Northeastern-seal.svg.png", "lng": -71.0892},
          {"website": "pnwu.edu", "city": "Yakima", "name": "Pacific Northwest University of Health Sciences", "zip": "98901", "state": "Washington", "colors": "None", "address": "Pacific Northwest University of Health Sciences, 111 University Parkway, Yakima, WA 98901, USA", "lat": 46.6032, "logo": "upload.wikimedia.org/wikipedia/commons/thumb/1/1f/PNWU_Logo.jpg/275px-PNWU_Logo.jpg", "lng": -120.4565},
          {"website": "www.DeVry.edu", "city": "Addison", "name": "DeVry University", "zip": "60101", "state": "Illinois", "colors": "None", "address": "DeVry University, 1221 North Swift Road, Addison, IL 60101, USA", "lat": 41.9498, "logo": "upload.wikimedia.org/wikipedia/en/thumb/6/67/DeVry-University-Logo.png/125px-DeVry-University-Logo.png", "lng": -88.0391},
          {"website": "cityu.edu", "city": "Seattle", "name": "City University of Seattle", "zip": "98105", "state": "Washington", "colors": "None", "address": "Seattle, WA 98105, USA", "lat": 47.6616, "logo": "upload.wikimedia.org/wikipedia/en/thumb/7/7f/City_University_of_Seattle_logo_-_CityUSeattle_h_2c.svg/260px-City_University_of_Seattle_logo_-_CityUSeattle_h_2c.svg.png", "lng": -122.3203},
          {"website": "Bastyr.edu", "city": "Kenmore", "name": "Bastyr University", "zip": "98028", "state": "Washington", "colors": "None", "address": "Bastyr University, 14500 Juanita Drive NE, Kenmore, WA 98028, USA", "lat": 47.73, "logo": "upload.wikimedia.org/wikipedia/commons/thumb/2/29/Students_0006.JPG/250px-Students_0006.JPG", "lng": -122.2519},
          {"website": "www.washington.edu", "city": "Seattle", "name": "University of Washington", "zip": "98105", "state": "Washington", "colors": "None", "address": "University of Washington, Seattle, WA 98105, USA", "lat": 47.6553, "logo": "upload.wikimedia.org/wikipedia/en/thumb/1/14/University_of_Washington_Seal.svg/225px-University_of_Washington_Seal.svg.png", "lng": -122.3035},
          {"website": "cwu.edu", "city": "Ellensburg", "name": "Central Washington University", "zip": "98926", "state": "Washington", "colors": "None", "address": "Central Washington University, 400 East University Way, Ellensburg, WA 98926, USA", "lat": 47.0039, "logo": "upload.wikimedia.org/wikipedia/en/thumb/a/a9/CentralWashingtonUniversitySeal.png/220px-CentralWashingtonUniversitySeal.png", "lng": -120.54},
          {"website": "www.hartford.edu", "city": "West Hartford", "name": "University of Hartford", "zip": "06117", "state": "Connecticut", "colors": "None", "address": "University of Hartford, 200 Bloomfield Avenue, West Hartford, CT 06117, USA", "lat": 41.8, "logo": "upload.wikimedia.org/wikipedia/en/thumb/6/6c/University_of_Hartford_coat_of_arms.svg/150px-University_of_Hartford_coat_of_arms.svg.png", "lng": -72.715},
          {"website": "www.fairfield.edu", "city": "Fairfield", "name": "Fairfield University", "zip": "06824", "state": "Connecticut", "colors": "None", "address": "Fairfield University, 1073 North Benson Road, Fairfield, CT 06824, USA", "lat": 41.1596, "logo": "upload.wikimedia.org/wikipedia/en/6/69/Fairfield_Seal.png", "lng": -73.2574},
          {"website": "www.bridgeport.edu", "city": "Bridgeport", "name": "University of Bridgeport", "zip": "06604", "state": "Connecticut", "colors": "None", "address": "University of Bridgeport, 126 Park Avenue, Bridgeport, CT 06604, USA", "lat": 41.1647, "logo": "upload.wikimedia.org/wikipedia/en/thumb/0/0f/University_of_Bridgeport.svg/200px-University_of_Bridgeport.svg.png", "lng": -73.1902},
          {"website": "www.wcsu.edu", "city": "Danbury", "name": "Western Connecticut State University", "zip": "06810", "state": "Connecticut", "colors": "None", "address": "Western Connecticut State University, 181 White Street, Danbury, CT 06810, USA", "lat": 41.3988, "logo": "upload.wikimedia.org/wikipedia/en/thumb/4/46/WestConn_logo.jpg/220px-WestConn_logo.jpg", "lng": -73.443},
          {"website": "www.southernct.edu", "city": "New Haven", "name": "Southern Connecticut State University", "zip": "06515", "state": "Connecticut", "colors": "None", "address": "Southern Connecticut State University, 501 Crescent Street, New Haven, CT 06515, USA", "lat": 41.3323, "logo": "upload.wikimedia.org/wikipedia/en/thumb/8/84/Southern_Connecticut_State_University.svg/220px-Southern_Connecticut_State_University.svg.png", "lng": -72.9446},
          {"website": "www.ccsu.edu", "city": "New Britain", "name": "Central Connecticut State University", "zip": "06053", "state": "Connecticut", "colors": "None", "address": "Central Connecticut State University, 1615 Stanley Street, New Britain, CT 06053, USA", "lat": 41.6907, "logo": "upload.wikimedia.org/wikipedia/en/thumb/0/0e/Central_Connecticut_State_University_Seal.svg/200px-Central_Connecticut_State_University_Seal.svg.png", "lng": -72.7665},
          {"website": "www.usj.edu", "city": "West Hartford", "name": "University of Saint Joseph", "zip": "06117", "state": "Connecticut", "colors": "None", "address": "University of Saint Joseph, 1678 Asylum Avenue, West Hartford, CT 06117, USA", "lat": 41.7797, "logo": "upload.wikimedia.org/wikipedia/en/thumb/c/c0/UnivSJct.jpg/250px-UnivSJct.jpg", "lng": -72.7313},
          {"website": "http://www.johncabot.edu/", "city": "Southport", "name": "John Cabot University", "zip": "28461", "state": "North Carolina", "colors": "None", "address": "John Cabot University, Southport, NC 28461, USA", "lat": 33.9216, "logo": "upload.wikimedia.org/wikipedia/en/thumb/2/2e/JCU_40th_anniversary_logo.jpg/200px-JCU_40th_anniversary_logo.jpg", "lng": -78.0203},
          {"website": "www.aur.edu/", "city": "Rome", "name": "American University of Rome", "zip": "00153", "state": "Lazio", "colors": "None", "address": "The American University of Rome, Via Pietro Roselli, 4, 00153 Rome, Italy", "lat": 41.8855, "logo": "upload.wikimedia.org/wikipedia/en/thumb/5/5b/The_American_University_of_Rome_Official_Crest_2014.png/220px-The_American_University_of_Rome_Official_Crest_2014.png", "lng": 12.4622},
          {"website": "http://www.UAT.edu", "city": "Tempe", "name": "University of Advancing Technology", "zip": "85283", "state": "Arizona", "colors": "None", "address": "University of Advancing Technology, 2625 West Baseline Road, Tempe, AZ 85283, USA", "lat": 33.3775, "logo": "upload.wikimedia.org/wikipedia/en/2/29/University_of_Advancing_Technology_%28Tempe%2C_Arizona%29_logo.png", "lng": -111.976},
          {"website": "http://www.ncu.edu", "city": "Prescott Valley", "name": "Northcentral University", "zip": "86314", "state": "Arizona", "colors": "None", "address": "Northcentral University, 10000 East University Drive, Prescott Valley, AZ 86314, USA", "lat": 34.5989, "logo": "upload.wikimedia.org/wikipedia/en/thumb/8/8f/Ncu_banner.gif/300px-Ncu_banner.gif", "lng": -112.2862},
          {"website": "www.wmcarey.edu", "city": "Hattiesburg", "name": "William Carey University", "zip": "39401", "state": "Mississippi", "colors": "None", "address": "William Carey University, 498 Tuscan Avenue, Hattiesburg, MS 39401, USA", "lat": 31.3046, "logo": "upload.wikimedia.org/wikipedia/commons/thumb/2/27/William_Carey_University_Sign.jpg/250px-William_Carey_University_Sign.jpg", "lng": -89.292},
          {"website": "http://www.belhaven.edu", "city": "Jackson", "name": "Belhaven University", "zip": "39202", "state": "Mississippi", "colors": "None", "address": "Belhaven University, 1500 Peachtree Street, Jackson, MS 39202, USA", "lat": 32.3199, "logo": "upload.wikimedia.org/wikipedia/en/thumb/4/4d/Belhaven_University_Main_Logo.png/200px-Belhaven_University_Main_Logo.png", "lng": -90.1688},
          {"website": "www.wichita.edu", "city": "Wichita", "name": "Wichita State University", "zip": "67260", "state": "Kansas", "colors": "None", "address": "Wichita State University, 1845 Fairmount Street, Wichita, KS 67260, USA", "lat": 37.7193, "logo": "upload.wikimedia.org/wikipedia/en/thumb/c/c6/Wichita_State_University_Seal.png/150px-Wichita_State_University_Seal.png", "lng": -97.295},
          {"website": "www.pittstate.edu", "city": "Pittsburg", "name": "Pittsburg State University", "zip": "66762", "state": "Kansas", "colors": "None", "address": "Pittsburg State University, 1701 South Broadway Street, Pittsburg, KS 66762, USA", "lat": 37.3918, "logo": "upload.wikimedia.org/wikipedia/en/thumb/0/04/Pittsburg_State_University_seal.png/200px-Pittsburg_State_University_seal.png", "lng": -94.6961},
          {"website": "www.fhsu.edu", "city": "Hays", "name": "Fort Hays State University", "zip": "67601", "state": "Kansas", "colors": "None", "address": "Fort Hays State University, 600 Park Street, Hays, KS 67601, USA", "lat": 38.8687, "logo": "upload.wikimedia.org/wikipedia/en/thumb/1/1e/Fort_Hays_State_University_%28emblem%29.png/150px-Fort_Hays_State_University_%28emblem%29.png", "lng": -99.3421},
          {"website": "Stmary.edu", "city": "Leavenworth", "name": "University of Saint Mary", "zip": "66048", "state": "Kansas", "colors": "None", "address": "University of Saint Mary, 4100 South 4 Street, Leavenworth, KS 66048, USA", "lat": 39.2774, "logo": "upload.wikimedia.org/wikipedia/en/thumb/f/fa/University_of_Saint_Mary_Kansas_seal.png/180px-University_of_Saint_Mary_Kansas_seal.png", "lng": -94.9065},
          {"website": "mnu.edu", "city": "Olathe", "name": "MidAmerica Nazarene University", "zip": "66062", "state": "Kansas", "colors": "None", "address": "MidAmerica Nazarene University, 2030 East College Way, Olathe, KS 66062, USA", "lat": 38.8745, "logo": "upload.wikimedia.org/wikipedia/en/thumb/6/6b/MNUseal.png/125px-MNUseal.png", "lng": -94.7804},
          {"website": "Friends.edu", "city": "Wichita", "name": "Friends University", "zip": "67213", "state": "Kansas", "colors": "None", "address": "Friends University, 2100 West University Street, Wichita, KS 67213, USA", "lat": 37.6776, "logo": "upload.wikimedia.org/wikipedia/en/thumb/d/dc/Davis_Full_Front.JPG/220px-Davis_Full_Front.JPG", "lng": -97.3672},
          {"website": "www.bakeru.edu", "city": "Baldwin City", "name": "Baker University", "zip": "66006", "state": "Kansas", "colors": "None", "address": "Baker University, 618 8th Street, Baldwin City, KS 66006, USA", "lat": 38.7774, "logo": "upload.wikimedia.org/wikipedia/en/thumb/2/25/Baker_University_wordmark.png/180px-Baker_University_wordmark.png", "lng": -95.1888},
          {"website": "http://www.law.wayne.edu/", "city": "Detroit", "name": "Wayne State University Law School", "zip": "48202", "state": "Michigan", "colors": "None", "address": "Law School Building (Damon J. Keith Center for Civil Rights), Wayne State University, West Palmer Avenue, Detroit, MI 48202, USA", "lat": 42.361, "logo": "upload.wikimedia.org/wikipedia/en/5/50/WSU_LS_logo.png", "lng": -83.0706},
          {"website": "http://www.chm.msu.edu/", "city": "Grand Rapids", "name": "Michigan State University College of Human Medicine", "zip": "49503", "state": "Michigan", "colors": "None", "address": "College of Human Medicine, 15 Michigan Street Northeast, Grand Rapids, MI 49503, USA", "lat": 42.9709, "logo": "upload.wikimedia.org/wikipedia/commons/thumb/7/7b/Msu-chm-secchia-center-evening.jpg/220px-Msu-chm-secchia-center-evening.jpg", "lng": -85.6683},
          {"website": "umflint.edu", "city": "Flint Township", "name": "University of Michigan-Flint", "zip": "48502", "state": "Michigan", "colors": "None", "address": "University of Michigan-Flint, 303 East Kearsley Street, Flint Township, MI 48502, USA", "lat": 43.0195, "logo": "upload.wikimedia.org/wikipedia/en/thumb/4/4c/UMFlintSeal.jpg/200px-UMFlintSeal.jpg", "lng": -83.6895},
          {"website": "www.udmercy.edu", "city": "Detroit", "name": "University of Detroit Mercy", "zip": "48221", "state": "Michigan", "colors": "None", "address": "University of Detroit Mercy, 4001 McNichols Road West, Detroit, MI 48221, USA", "lat": 42.4171, "logo": "upload.wikimedia.org/wikipedia/en/c/c5/University_of_Detroit_Mercy_seal_2012.png", "lng": -83.1403},
          {"website": "http://www.arbor.edu", "city": "Spring Arbor", "name": "Spring Arbor University", "zip": "49283", "state": "Michigan", "colors": "None", "address": "Spring Arbor University, 106 East Main Street, Spring Arbor Township, MI 49283, USA", "lat": 42.207, "logo": "upload.wikimedia.org/wikipedia/en/thumb/d/d0/Spring_Arbor_University_seal.svg/200px-Spring_Arbor_University_seal.svg.png", "lng": -84.555},
          {"website": "www.sienaheights.edu", "city": "Adrian", "name": "Siena Heights University", "zip": "49221", "state": "Michigan", "colors": "None", "address": "Siena Heights University, 1247 East Siena Heights Drive, Adrian, MI 49221, USA", "lat": 41.9059, "logo": "upload.wikimedia.org/wikipedia/en/thumb/c/c1/Siena_Seal_BW.png/150px-Siena_Seal_BW.png", "lng": -84.0159},
          {"website": "www.svsu.edu", "city": "University Center", "name": "Saginaw Valley State University", "zip": "48710", "state": "Michigan", "colors": "None", "address": "Saginaw Valley State University, 7400 Bay Road, University Center, MI 48710, USA", "lat": 43.5126, "logo": "upload.wikimedia.org/wikipedia/en/thumb/6/63/Svsu_logo.jpg/200px-Svsu_logo.jpg", "lng": -83.9605},
          {"website": "mtu.edu", "city": "Houghton", "name": "Michigan Technological University", "zip": "49931", "state": "Michigan", "colors": "None", "address": "Michigan Technological University, 1400 Townsend Drive, Houghton, MI 49931, USA", "lat": 47.1171, "logo": "upload.wikimedia.org/wikipedia/en/thumb/f/fc/MTUSeal.svg/200px-MTUSeal.svg.png", "lng": -88.5445},
          {"website": "www.madonna.edu", "city": "Livonia", "name": "Madonna University", "zip": "48150", "state": "Michigan", "colors": "None", "address": "Madonna University, 36600 Schoolcraft Street, Livonia, MI 48150, USA", "lat": 42.3843, "logo": "upload.wikimedia.org/wikipedia/en/1/10/Madonna-U.jpg", "lng": -83.4035},
          {"website": "http://www.ltu.edu", "city": "Southfield", "name": "Lawrence Technological University", "zip": "48075", "state": "Michigan", "colors": "None", "address": "Lawrence Technological University, 21000 West 10 Mile Road, Southfield, MI 48075, USA", "lat": 42.4728, "logo": "upload.wikimedia.org/wikipedia/en/2/2a/Lawrence_Technological_University_%28seal%29.png", "lng": -83.2496},
          {"website": "lssu.edu", "city": "Sault Ste. Marie", "name": "Lake Superior State University", "zip": "49783", "state": "Michigan", "colors": "None", "address": "Lake Superior State University, 650 West Easterday Avenue, Sault Ste. Marie, MI 49783, USA", "lat": 46.4927, "logo": "upload.wikimedia.org/wikipedia/en/thumb/8/87/Lake_Superior_State_University_Seal.svg/200px-Lake_Superior_State_University_Seal.svg.png", "lng": -84.3645},
          {"website": "www.gvsu.edu", "city": "Allendale Charter Township", "name": "Grand Valley State University", "zip": "49401", "state": "Michigan", "colors": "None", "address": "Grand Valley State University, 1 West Campus Drive, Allendale Charter Township, MI 49401, USA", "lat": 42.9632, "logo": "upload.wikimedia.org/wikipedia/en/thumb/3/3d/Grand-Valley-State-University-Seal.svg/200px-Grand-Valley-State-University-Seal.svg.png", "lng": -85.89},
          {"website": "www.finlandia.edu", "city": "Hancock", "name": "Finlandia University", "zip": "49930", "state": "Michigan", "colors": "None", "address": "Finlandia University, 601 Quincy Street, Hancock, MI 49930, USA", "lat": 47.1269, "logo": "upload.wikimedia.org/wikipedia/en/thumb/1/1e/Finlandia_University_seal.png/200px-Finlandia_University_seal.png", "lng": -88.5891},
          {"website": "http://www.winona.edu/", "city": "Winona", "name": "Winona State University", "zip": "55987", "state": "Minnesota", "colors": "None", "address": "Winona State University, 175 West Mark Street, Winona, MN 55987, USA", "lat": 44.0474, "logo": "upload.wikimedia.org/wikipedia/en/4/41/Winona_State_University.png", "lng": -91.6433},
          {"website": "www.waldenu.edu", "city": "Minneapolis", "name": "Walden University", "zip": "55401", "state": "Minnesota", "colors": "None", "address": "Walden University, 100 Washington Avenue South #900, Minneapolis, MN 55401, USA", "lat": 44.9814, "logo": "upload.wikimedia.org/wikipedia/en/7/72/Walden_Seal_Color_200px.png", "lng": -93.2657},
          {"website": "umn.edu", "city": "Minneapolis", "name": "University of Minnesota", "zip": "55455", "state": "Minnesota", "colors": "None", "address": "University of Minnesota, Minneapolis, MN 55455, USA", "lat": 44.974, "logo": "upload.wikimedia.org/wikipedia/en/thumb/6/68/Umnseal.png/225px-Umnseal.png", "lng": -93.2277},
          {"website": "www.smsu.edu", "city": "Marshall", "name": "Southwest Minnesota State University", "zip": "56258", "state": "Minnesota", "colors": "None", "address": "Southwest Minnesota State University, 1501 State Street, Marshall, MN 56258, USA", "lat": 44.4558, "logo": "upload.wikimedia.org/wikipedia/en/thumb/0/04/Southwest_Minnesota_State_University_seal.svg/200px-Southwest_Minnesota_State_University_seal.svg.png", "lng": -95.7603},
          {"website": "www.smumn.edu", "city": "Winona", "name": "Saint Mary's University of Minnesota", "zip": "55987", "state": "Minnesota", "colors": "None", "address": "Saint Mary's University of Minnesota, 700 Terrace Heights, Winona, MN 55987, USA", "lat": 44.0455, "logo": "upload.wikimedia.org/wikipedia/en/thumb/5/5f/Saint_Mary%27s_University_of_Minnesota_Seal.svg/200px-Saint_Mary%27s_University_of_Minnesota_Seal.svg.png", "lng": -91.6964},
          {"website": "www.mnstate.edu", "city": "Moorhead", "name": "Minnesota State University Moorhead", "zip": "56563", "state": "Minnesota", "colors": "None", "address": "Minnesota State University Moorhead, 1104 7th Avenue South, Moorhead, MN 56563, USA", "lat": 46.867, "logo": "upload.wikimedia.org/wikipedia/en/thumb/e/e7/Minnesota_State_University_Moorhead_Seal.svg/200px-Minnesota_State_University_Moorhead_Seal.svg.png", "lng": -96.7567},
          {"website": "http://www.stthomas.edu/law/", "city": "Miami Gardens", "name": "University of St. Thomas School of Law", "zip": "33054", "state": "Florida", "colors": "None", "address": "St. Thomas University School of Law, Saint Thomas University, 16401 NW 37th Ave, Miami Gardens, FL 33054, USA", "lat": 25.9211, "logo": "upload.wikimedia.org/wikipedia/en/thumb/8/8e/UST_Seal.png/200px-UST_Seal.png", "lng": -80.2535},
          {"website": "www.law.umn.edu", "city": "Minneapolis", "name": "University of Minnesota Law School", "zip": "55455", "state": "Minnesota", "colors": "None", "address": "University of Minnesota Law School, University of Minnesota, 229 19th Avenue South #285, Minneapolis, MN 55455, USA", "lat": 44.9734, "logo": "upload.wikimedia.org/wikipedia/en/c/ce/UMNLawOfficialSeal.png", "lng": -93.2447},
          {"website": "http://www.med.umn.edu/", "city": "Duluth", "name": "University of Minnesota Medical School", "zip": "55812", "state": "Minnesota", "colors": "None", "address": "University of Minnesota Medical School, University of Minnesota at Duluth, 1035 University Drive, Duluth, MN 55812, USA", "lat": 46.8165, "logo": "upload.wikimedia.org/wikipedia/en/thumb/6/68/Umnseal.png/220px-Umnseal.png", "lng": -92.0857},
          {"website": "www.hamline.edu", "city": "Saint Paul", "name": "Hamline University", "zip": "55104", "state": "Minnesota", "colors": "None", "address": "Hamline University, 1536 Hewitt Avenue, Saint Paul, MN 55104, USA", "lat": 44.966, "logo": "upload.wikimedia.org/wikipedia/en/thumb/d/d9/Hamline_U-Seal.svg/170px-Hamline_U-Seal.svg.png", "lng": -93.1653},
          {"website": "morris.umn.edu", "city": "Morris", "name": "University of Minnesota Morris", "zip": "56267", "state": "Minnesota", "colors": "None", "address": "University of Minnesota, Morris, 600 East 4th Street, Morris, MN 56267, USA", "lat": 45.5892, "logo": "upload.wikimedia.org/wikipedia/en/thumb/6/68/Umnseal.png/200px-Umnseal.png", "lng": -95.9034},
          {"website": "http://www.d.umn.edu", "city": "Duluth", "name": "University of Minnesota Duluth", "zip": "55812", "state": "Minnesota", "colors": "None", "address": "University of Minnesota at Duluth, 1049 University Drive, Duluth, MN 55812, USA", "lat": 46.8184, "logo": "upload.wikimedia.org/wikipedia/en/7/77/Umd-identity-2012.jpg", "lng": -92.0859},
          {"website": "www.stthomas.edu", "city": "Saint Paul", "name": "University of St. Thomas", "zip": "55105", "state": "Minnesota", "colors": "None", "address": "University of St. Thomas, 2115 Summit Avenue, Saint Paul, MN 55105, USA", "lat": 44.9419, "logo": "upload.wikimedia.org/wikipedia/en/thumb/8/8e/UST_Seal.png/220px-UST_Seal.png", "lng": -93.1897},
          {"website": "www.sbuniv.edu", "city": "Bolivar", "name": "Southwest Baptist University", "zip": "65613", "state": "Missouri", "colors": "None", "address": "Southwest Baptist University Bookstore, 1600 University Avenue, Bolivar, MO 65613, USA", "lat": 37.6008, "logo": "upload.wikimedia.org/wikipedia/en/thumb/8/80/Sbu_seal.png/180px-Sbu_seal.png", "lng": -93.4109},
          {"website": "www.slu.edu", "city": "St. Louis", "name": "Saint Louis University", "zip": "63103", "state": "Missouri", "colors": "None", "address": "Saint Louis University, 221 North Grand Boulevard, St. Louis, MO 63103, USA", "lat": 38.6365, "logo": "upload.wikimedia.org/wikipedia/en/thumb/4/4d/Saint_louis_university_MO_logo.png/200px-Saint_louis_university_MO_logo.png", "lng": -90.2331},
          {"website": "www.rockhurst.edu", "city": "Kansas City", "name": "Rockhurst University", "zip": "64110", "state": "Missouri", "colors": "None", "address": "Rockhurst University, 1100 Rockhurst Road, Kansas City, MO 64110, USA", "lat": 39.0308, "logo": "upload.wikimedia.org/wikipedia/en/thumb/7/75/RockhurstUniversitySeal.png/200px-RockhurstUniversitySeal.png", "lng": -94.5735},
          {"website": "www.maryville.edu", "city": "St. Louis", "name": "Maryville University", "zip": "63141", "state": "Missouri", "colors": "None", "address": "Maryville University, 650 Maryville University Drive, St. Louis, MO 63141, USA", "lat": 38.6453, "logo": "upload.wikimedia.org/wikipedia/en/thumb/0/09/Maryville_University_Logo.png/250px-Maryville_University_Logo.png", "lng": -90.5058},
          {"website": "www.lindenwood.edu", "city": "St. Charles", "name": "Lindenwood University", "zip": "63301", "state": "Missouri", "colors": "None", "address": "Lindenwood University, 209 South Kingshighway Street, St. Charles, MO 63301, USA", "lat": 38.7876, "logo": "upload.wikimedia.org/wikipedia/en/thumb/c/c0/Lindenwood_University_seal.png/200px-Lindenwood_University_seal.png", "lng": -90.5061},
          {"website": "hlg.edu", "city": "Hannibal", "name": "Hannibal-LaGrange University", "zip": "63401", "state": "Missouri", "colors": "None", "address": "Hannibal-LaGrange University, 2800 Palmyra Road, Hannibal, MO 63401, USA", "lat": 39.7271, "logo": "upload.wikimedia.org/wikipedia/en/thumb/c/c6/Hannibal-LaGrange_University_logo.jpg/200px-Hannibal-LaGrange_University_logo.jpg", "lng": -91.3918},
          {"website": "http://www.fontbonne.edu", "city": "Clayton", "name": "Fontbonne University", "zip": "63105", "state": "Missouri", "colors": "None", "address": "Fontbonne University, 6800 Wydown Boulevard, Clayton, MO 63105, USA", "lat": 38.643, "logo": "upload.wikimedia.org/wikipedia/en/b/bb/FontbonneSeal.png", "lng": -90.3146},
          {"website": "http://www.evangel.edu/", "city": "Springfield", "name": "Evangel University", "zip": "65802", "state": "Missouri", "colors": "None", "address": "Evangel University, Global University, 1111 North Glenstone Avenue, Springfield, MO 65802, USA", "lat": 37.2209, "logo": "upload.wikimedia.org/wikipedia/en/f/fd/Evangel_University_logo_200px.jpg", "lng": -93.2627},
          {"website": "www.mssu.edu", "city": "Joplin", "name": "Missouri Southern State University", "zip": "64801", "state": "Missouri", "colors": "None", "address": "Missouri Southern State University, 3950 Newman Road, Joplin, MO 64801, USA", "lat": 37.096, "logo": "upload.wikimedia.org/wikipedia/en/thumb/7/7b/Missouri_Southern_State_University_seal.png/180px-Missouri_Southern_State_University_seal.png", "lng": -94.4622},
          {"website": "www.lincolnu.edu", "city": "Brayford Pool", "name": "Lincoln University", "zip": "LN6 7TS", "state": "England", "colors": "None", "address": "University of Lincoln, Brayford Pool, Lincoln, Lincolnshire LN6 7TS, UK", "lat": 53.2285, "logo": "upload.wikimedia.org/wikipedia/en/0/09/Lincoln_University_%28Missouri%29_seal.png", "lng": -0.5498},
          {"website": "www.mst.edu", "city": "Rolla", "name": "Missouri University of Science and Technology", "zip": "65409", "state": "Missouri", "colors": "None", "address": "Missouri University of Science and Technology, 1870 Miner Circle, Rolla, MO 65409, USA", "lat": 37.9543, "logo": "upload.wikimedia.org/wikipedia/en/thumb/3/3a/University_of_Missouri_seal_bw.svg/140px-University_of_Missouri_seal_bw.svg.png", "lng": -91.774},
          {"website": "www.umsystem.edu", "city": "Columbia", "name": "University of Missouri System", "zip": "65203", "state": "65211", "colors": "None", "address": "University of Missouri System, University of Missouri, 181 General Service Building, Columbia, 65211 65203, USA", "lat": 38.9368, "logo": "upload.wikimedia.org/wikipedia/en/thumb/f/f4/University_of_Missouri_Seal.svg/140px-University_of_Missouri_Seal.svg.png", "lng": -92.341},
          {"website": "http://www.nebrwesleyan.edu/", "city": "Lincoln", "name": "Nebraska Wesleyan University", "zip": "68504", "state": "Nebraska", "colors": "None", "address": "Nebraska Wesleyan University, 5000 Saint Paul Avenue, Lincoln, NE 68504, USA", "lat": 40.8388, "logo": "upload.wikimedia.org/wikipedia/en/thumb/6/64/Nw_old_main.jpg/150px-Nw_old_main.jpg", "lng": -96.6476},
          {"website": "www.umary.edu", "city": "Bismarck", "name": "University of Mary", "zip": "58504", "state": "North Dakota", "colors": "None", "address": "University of Mary, 7500 University Drive, Bismarck, ND 58504, USA", "lat": 46.7243, "logo": "upload.wikimedia.org/wikipedia/commons/6/6f/MaryLogo.jpg", "lng": -100.7516},
          {"website": "www.mayvillestate.edu", "city": "Mayville", "name": "Mayville State University", "zip": "58257", "state": "North Dakota", "colors": "None", "address": "Mayville State University, 3rd Street Northeast, Mayville, ND 58257, USA", "lat": 47.5039, "logo": "upload.wikimedia.org/wikipedia/en/thumb/d/d0/MayvilleState-logo.jpg/200px-MayvilleState-logo.jpg", "lng": -97.3239},
          {"website": "law.und.edu", "city": "Vermillion", "name": "University of North Dakota School of Law", "zip": "57069", "state": "South Dakota", "colors": "None", "address": "School of Law, The University of South Dakota, Vermillion, SD 57069, USA", "lat": 42.7862, "logo": "upload.wikimedia.org/wikipedia/en/thumb/c/c1/UND_Law_School.jpg/250px-UND_Law_School.jpg", "lng": -96.9277},
          {"website": "www.ohiodominican.edu", "city": "Columbus", "name": "Ohio Dominican University", "zip": "43219", "state": "Ohio", "colors": "None", "address": "Ohio Dominican University, 1216 Sunbury Road, Columbus, OH 43219, USA", "lat": 39.9931, "logo": "upload.wikimedia.org/wikipedia/en/5/5e/Logo_for_Ohio_Dominican_University.jpg", "lng": -82.9407},
          {"website": "www.jcu.edu", "city": "University Heights", "name": "John Carroll University", "zip": "44118", "state": "Ohio", "colors": "None", "address": "John Carroll University, 1 John Carroll Boulevard, University Heights, OH 44118, USA", "lat": 41.4902, "logo": "upload.wikimedia.org/wikipedia/en/6/6d/Jcu_seal_small.jpg", "lng": -81.5314},
          {"website": "franciscan.edu", "city": "Steubenville", "name": "Franciscan University of Steubenville", "zip": "43952", "state": "Ohio", "colors": "None", "address": "Franciscan University of Steubenville, 1235 University Boulevard, Steubenville, OH 43952, USA", "lat": 40.3778, "logo": "upload.wikimedia.org/wikipedia/en/b/bd/FUS_Seal.png", "lng": -80.6235},
          {"website": "www.wilberforce.edu", "city": "Wilberforce", "name": "Wilberforce University", "zip": "45384", "state": "Ohio", "colors": "None", "address": "Wilberforce University Fcu, 1055 North Bickett Road, Wilberforce, OH 45384, USA", "lat": 39.7106, "logo": "upload.wikimedia.org/wikipedia/en/thumb/b/b3/Wilberforce_University_Seal.jpg/220px-Wilberforce_University_Seal.jpg", "lng": -83.8789},
          {"website": "www.findlay.edu", "city": "Findlay", "name": "University of Findlay", "zip": "45840", "state": "Ohio", "colors": "None", "address": "University of Findlay, 1015 North Main Street, Findlay, OH 45840, USA", "lat": 41.0531, "logo": "upload.wikimedia.org/wikipedia/en/thumb/6/61/UFindlaySeal.png/162px-UFindlaySeal.png", "lng": -83.6497},
          {"website": "http://www.ChancellorU.edu", "city": "Seven Hills", "name": "Chancellor University", "zip": "44131", "state": "Ohio", "colors": "None", "address": "Chancellor University, 6000 Lombardo Center, Seven Hills, OH 44131, USA", "lat": 41.4025, "logo": "upload.wikimedia.org/wikipedia/en/thumb/1/1e/Chacelloru1.jpg/220px-Chacelloru1.jpg", "lng": -81.6641},
          {"website": "http://www.malone.edu/", "city": "Canton", "name": "Malone University", "zip": "44709", "state": "Ohio", "colors": "None", "address": "Malone University, 2600 Cleveland Avenue Northwest, Canton, OH 44709, USA", "lat": 40.8272, "logo": "upload.wikimedia.org/wikipedia/commons/3/36/Malone_University_Seal.jpg", "lng": -81.3806},
          {"website": "denison.edu", "city": "Granville", "name": "Denison University", "zip": "43023", "state": "Ohio", "colors": "None", "address": "Denison University, 100 W College St, Granville, OH 43023, USA", "lat": 40.074, "logo": "upload.wikimedia.org/wikipedia/en/b/b8/DenisonUniversitySeal.png", "lng": -82.5226},
          {"website": "http://www.ohio.edu/eastern/", "city": "St. Clairsville", "name": "Ohio University Eastern Campus", "zip": "43950", "state": "Ohio", "colors": "None", "address": "Ohio University Eastern Campus, 45425 National Rd, St. Clairsville, OH 43950, USA", "lat": 40.0722, "logo": "upload.wikimedia.org/wikipedia/en/thumb/b/ba/OUEC-black.gif/200px-OUEC-black.gif", "lng": -80.9746},
          {"website": "www.ysu.edu", "city": "Youngstown", "name": "Youngstown State University", "zip": "44555", "state": "Ohio", "colors": "None", "address": "Youngstown State University, 1 University Plaza, Youngstown, OH 44555, USA", "lat": 41.1063, "logo": "upload.wikimedia.org/wikipedia/commons/0/0f/Youngstown_State_University_Seal.gif", "lng": -80.6477},
          {"website": "http://www.ashtabula.kent.edu/", "city": "Ashtabula", "name": "Kent State University at Ashtabula", "zip": "44004", "state": "Ohio", "colors": "None", "address": "Ashtabula, OH 44004, USA", "lat": 41.8651, "logo": "upload.wikimedia.org/wikipedia/en/thumb/4/4c/KSU_seal.png/180px-KSU_seal.png", "lng": -80.7898},
          {"website": "www.wright.edu", "city": "Dayton", "name": "Wright State University", "zip": "45435", "state": "Ohio", "colors": "None", "address": "Wright State University, Dayton, OH 45435, USA", "lat": 39.7804, "logo": "upload.wikimedia.org/wikipedia/en/thumb/2/26/WrightStateLogo.png/150px-WrightStateLogo.png", "lng": -84.0633},
          {"website": "law.utoledo.edu", "city": "Toledo", "name": "University of Toledo College of Law", "zip": "43607", "state": "Ohio", "colors": "None", "address": "Law Center, The University of Toledo, Toledo, OH 43607, USA", "lat": 41.6585, "logo": "upload.wikimedia.org/wikipedia/en/thumb/2/2b/UTLaw.jpg/226px-UTLaw.jpg", "lng": -83.6201},
          {"website": "Utoledo.edu", "city": "Toledo", "name": "University of Toledo", "zip": "43606", "state": "Ohio", "colors": "None", "address": "The University of Toledo, 2801 West Bancroft Street, Toledo, OH 43606, USA", "lat": 41.6621, "logo": "upload.wikimedia.org/wikipedia/commons/thumb/b/b8/UT_Hortz.svg/300px-UT_Hortz.svg.png", "lng": -83.6127},
          {"website": "osu.edu", "city": "Columbus", "name": "Ohio State University", "zip": "43210", "state": "Ohio", "colors": "None", "address": "The Ohio State University, Columbus, OH 43210, USA", "lat": 40.0138, "logo": "upload.wikimedia.org/wikipedia/en/thumb/2/27/Seal_of_the_Ohio_State_University.png/200px-Seal_of_the_Ohio_State_University.png", "lng": -83.0311},
          {"website": "http://www.uakron.edu/law/", "city": "Akron", "name": "University of Akron School of Law", "zip": "44325", "state": "Ohio", "colors": "None", "address": "The University of Akron School of Law, The University of Akron, 150 University Avenue, Akron, OH 44325, USA", "lat": 41.0774, "logo": "upload.wikimedia.org/wikipedia/commons/thumb/8/89/University_Akron_Law.JPG/250px-University_Akron_Law.JPG", "lng": -81.5153},
          {"website": "www.ohio.edu", "city": "Athens", "name": "Ohio University", "zip": "45701", "state": "Ohio", "colors": "None", "address": "Ohio University, Athens, OH 45701, USA", "lat": 39.3243, "logo": "upload.wikimedia.org/wikipedia/en/thumb/3/39/Ohio_University_seal.svg/220px-Ohio_University_seal.svg.png", "lng": -82.1014},
          {"website": "www.udayton.edu", "city": "Dayton", "name": "University of Dayton", "zip": "45469", "state": "Ohio", "colors": "None", "address": "University of Dayton, 300 College Park, Dayton, OH 45469, USA", "lat": 39.7407, "logo": "upload.wikimedia.org/wikipedia/en/thumb/3/32/Udlogo.png/175px-Udlogo.png", "lng": -84.1792},
          {"website": "www.miamioh.edu", "city": "Oxford", "name": "Miami University", "zip": "45056", "state": "Ohio", "colors": "None", "address": "Miami University, 501 East High Street, Oxford, OH 45056, USA", "lat": 39.5105, "logo": "upload.wikimedia.org/wikipedia/en/thumb/1/16/Seal_of_Miami_University.png/250px-Seal_of_Miami_University.png", "lng": -84.7309},
          {"website": "osu.edu", "city": "Columbus", "name": "Ohio State University", "zip": "43210", "state": "Ohio", "colors": "None", "address": "The Ohio State University, Columbus, OH 43210, USA", "lat": 40.0138, "logo": "upload.wikimedia.org/wikipedia/en/thumb/2/27/Seal_of_the_Ohio_State_University.png/200px-Seal_of_the_Ohio_State_University.png", "lng": -83.0311},
          {"website": "http://www.bgsu.edu/", "city": "Bowling Green", "name": "Bowling Green State University", "zip": "43403", "state": "Ohio", "colors": "None", "address": "Bowling Green State University, Bowling Green, OH 43403, USA", "lat": 41.3798, "logo": "upload.wikimedia.org/wikipedia/en/thumb/a/a3/Bowling_Green_State_University_seal.svg/220px-Bowling_Green_State_University_seal.svg.png", "lng": -83.6301},
          {"website": "umn.edu", "city": "Minneapolis", "name": "University of Minnesota", "zip": "55455", "state": "Minnesota", "colors": "None", "address": "University of Minnesota, Minneapolis, MN 55455, USA", "lat": 44.974, "logo": "upload.wikimedia.org/wikipedia/en/thumb/6/68/Umnseal.png/225px-Umnseal.png", "lng": -93.2277},
          {"website": "www.case.edu", "city": "Cleveland", "name": "Case Western Reserve University", "zip": "44106", "state": "Ohio", "colors": "None", "address": "Case Western Reserve University, 10900 Euclid Avenue, Cleveland, OH 44106, USA", "lat": 41.5043, "logo": "upload.wikimedia.org/wikipedia/en/thumb/0/08/Case_Western_Reserve_University_seal.svg/200px-Case_Western_Reserve_University_seal.svg.png", "lng": -81.6084},
          {"website": "www.usiouxfalls.edu", "city": "Sioux Falls", "name": "University of Sioux Falls", "zip": "57105", "state": "South Dakota", "colors": "None", "address": "University of Sioux Falls, 1101 West 22nd Street, Sioux Falls, SD 57105, USA", "lat": 43.5327, "logo": "upload.wikimedia.org/wikipedia/en/thumb/9/9e/USFReverseVerticalLogo.jpg/220px-USFReverseVerticalLogo.jpg", "lng": -96.7392},
          {"website": "www.northern.edu", "city": "Aberdeen", "name": "Northern State University", "zip": "57401", "state": "South Dakota", "colors": "None", "address": "Northern State University, 1200 South Jay Street, Aberdeen, SD 57401, USA", "lat": 45.4527, "logo": "upload.wikimedia.org/wikipedia/en/thumb/9/9d/Seal_of_Northern_State_University.png/175px-Seal_of_Northern_State_University.png", "lng": -98.4836},
          {"website": "national.edu", "city": "Roseville", "name": "National American University", "zip": "55113", "state": "Minnesota", "colors": "None", "address": "National American University, 1550 Minnesota 36, Roseville, MN 55113, USA", "lat": 45.0093, "logo": "upload.wikimedia.org/wikipedia/en/thumb/d/de/National_American_University_seal_-_gold.png/220px-National_American_University_seal_-_gold.png", "lng": -93.1626},
          {"website": "www.dwu.edu", "city": "Mitchell", "name": "Dakota Wesleyan University", "zip": "57301", "state": "South Dakota", "colors": "None", "address": "Dakota Wesleyan University, 1200 West University Avenue, Mitchell, SD 57301, USA", "lat": 43.6962, "logo": "upload.wikimedia.org/wikipedia/en/4/4e/321px_The_Seal_of_Dakota_Wesleyan_University_1904-Present.png", "lng": -98.031},
          {"website": "http://www.dsu.edu/", "city": "Madison", "name": "Dakota State University", "zip": "57042", "state": "South Dakota", "colors": "None", "address": "Dakota State University, 820 Washington Avenue North, Madison, SD 57042, USA", "lat": 44.0125, "logo": "upload.wikimedia.org/wikipedia/commons/thumb/5/54/Dsu-arch.jpg/200px-Dsu-arch.jpg", "lng": -97.1117},
          {"website": "www.bhsu.edu", "city": "Spearfish", "name": "Black Hills State University", "zip": "57799", "state": "South Dakota", "colors": "None", "address": "Black Hills State University, 1200 University Boulevard, Spearfish, SD 57799, USA", "lat": 44.4977, "logo": "upload.wikimedia.org/wikipedia/en/3/3b/Black_Hills_State_University_seal.png", "lng": -103.8726},
          {"website": "www.usd.edu/law", "city": "Vermillion", "name": "University of South Dakota School of Law", "zip": "57069", "state": "South Dakota", "colors": "None", "address": "School of Law, The University of South Dakota, Vermillion, SD 57069, USA", "lat": 42.7862, "logo": "upload.wikimedia.org/wikipedia/en/d/d6/ColorSeal.png", "lng": -96.9277},
          {"website": "http://www.waukesha.uwc.edu/", "city": "Waukesha", "name": "University of Wisconsin-Waukesha", "zip": "53188", "state": "Wisconsin", "colors": "None", "address": "University of Wisconsin Waukesha, North University Drive, Waukesha, WI 53188, USA", "lat": 43.0271, "logo": "upload.wikimedia.org/wikipedia/commons/5/5b/University_of_Wisconsin_Colleges.gif", "lng": -88.2692},
          {"website": "http://washington.uwc.edu/default.asp", "city": "West Bend", "name": "University of Wisconsin-Washington County", "zip": "53095", "state": "Wisconsin", "colors": "None", "address": "University of WI-Washington County, 400 South University Drive, West Bend, WI 53095, USA", "lat": 43.4186, "logo": "upload.wikimedia.org/wikipedia/en/thumb/d/df/UW_Washington_Logo.gif/150px-UW_Washington_Logo.gif", "lng": -88.2123},
          {"website": "http://richland.uwc.edu/", "city": "Richland Center", "name": "University of Wisconsin-Richland", "zip": "53581", "state": "Wisconsin", "colors": "None", "address": "University of Wisconsin-Richland, 1200 U.S. 14, Richland Center, WI 53581, USA", "lat": 43.3452, "logo": "upload.wikimedia.org/wikipedia/commons/4/41/UW-RichlandRoadrunnerSign.jpg", "lng": -90.3978},
          {"website": "www.viterbo.edu", "city": "La Crosse", "name": "Viterbo University", "zip": "54601", "state": "Wisconsin", "colors": "None", "address": "Viterbo University, 900 Viterbo Court, La Crosse, WI 54601, USA", "lat": 43.802, "logo": "upload.wikimedia.org/wikipedia/en/thumb/e/e9/Vu_lfl_horiz_bw_lg.gif/225px-Vu_lfl_horiz_bw_lg.gif", "lng": -91.2453},
          {"website": "uww.edu", "city": "Whitewater", "name": "University of Wisconsin-Whitewater", "zip": "53190", "state": "Wisconsin", "colors": "None", "address": "University of Wisconsin - Whitewater, 800 West Main Street, Whitewater, WI 53190, USA", "lat": 42.8384, "logo": "upload.wikimedia.org/wikipedia/en/thumb/5/5b/University_of_Wisconsin-Whitewater_logo.jpg/200px-University_of_Wisconsin-Whitewater_logo.jpg", "lng": -88.7432},
          {"website": "www.uwstout.edu", "city": "Menomonie", "name": "University of Wisconsin-Stout", "zip": "54751", "state": "Wisconsin", "colors": "None", "address": "University of Wisconsin-Stout, 712 Broadway Street South, Menomonie, WI 54751, USA", "lat": 44.87, "logo": "upload.wikimedia.org/wikipedia/en/e/e1/UWStout.png", "lng": -91.9281},
          {"website": "www.uwplatt.edu", "city": "Platteville", "name": "University of Wisconsin-Platteville", "zip": "53818", "state": "Wisconsin", "colors": "None", "address": "University of Wisconsin-Platteville, 1 University Plaza, Platteville, WI 53818, USA", "lat": 42.7345, "logo": "upload.wikimedia.org/wikipedia/commons/8/8d/UW_platteville_2010_logo.png", "lng": -90.4849},
          {"website": "www.uwp.edu", "city": "Kenosha", "name": "University of Wisconsin-Parkside", "zip": "53144", "state": "Wisconsin", "colors": "None", "address": "University of Wisconsin - Parkside Campus, 900 Wood Road, Kenosha, WI 53144, USA", "lat": 42.6432, "logo": "upload.wikimedia.org/wikipedia/en/thumb/9/9e/UW-Parkside_Seal.jpg/150px-UW-Parkside_Seal.jpg", "lng": -87.8479},
          {"website": "law.wisc.edu", "city": "Milwaukee", "name": "University of Wisconsin Law School", "zip": "53233", "state": "Wisconsin", "colors": "None", "address": "Eckstein Hall, Marquette University, Milwaukee, WI 53233, USA", "lat": 43.037, "logo": "upload.wikimedia.org/wikipedia/en/thumb/e/e4/NumenLumen.svg/150px-NumenLumen.svg.png", "lng": -87.9269},
          {"website": "law.marquette.edu", "city": "Milwaukee", "name": "Marquette University Law School", "zip": "53233", "state": "Wisconsin", "colors": "None", "address": "Marquette University Law School, Marquette University, 1215 West Michigan Street, Milwaukee, WI 53233, USA", "lat": 43.0369, "logo": "upload.wikimedia.org/wikipedia/en/c/cf/Marquette_University_Law_School_logo.gif", "lng": -87.927},
          {"website": "www.carrollu.edu", "city": "Waukesha", "name": "Carroll University", "zip": "53186", "state": "Wisconsin", "colors": "None", "address": "Carroll University, 100 North East Avenue, Waukesha, WI 53186, USA", "lat": 43.0046, "logo": "upload.wikimedia.org/wikipedia/en/thumb/4/45/CarrollU.png/180px-CarrollU.png", "lng": -88.228},
          {"website": "Wisconsin.edu", "city": "Madison", "name": "University of Wisconsin System", "zip": "53706", "state": "Wisconsin", "colors": "None", "address": "University of Wisconsin System, University of Wisconsin-Madison, 1220 Linden Drive, Madison, WI 53706, USA", "lat": 43.0756, "logo": "upload.wikimedia.org/wikipedia/en/thumb/e/ec/UW_seal.png/170px-UW_seal.png", "lng": -89.4066},
          {"website": "www.uwm.edu", "city": "Milwaukee", "name": "University of Wisconsin-Milwaukee", "zip": "53211", "state": "Wisconsin", "colors": "None", "address": "University of Wisconsin-Milwaukee, Milwaukee, WI 53211, USA", "lat": 43.0783, "logo": "upload.wikimedia.org/wikipedia/en/thumb/4/4a/UWMSeal.PNG/160px-UWMSeal.PNG", "lng": -87.882},
          {"website": "www.montevallo.edu", "city": "Montevallo", "name": "University of Montevallo", "zip": "35115", "state": "Alabama", "colors": "None", "address": "University of Montevallo, 75 College Drive, Montevallo, AL 35115, USA", "lat": 33.1061, "logo": "upload.wikimedia.org/wikipedia/en/8/8f/Montevallo_Logo_Falcon.jpg", "lng": -86.8642},
          {"website": "http://www.umobile.edu/", "city": "Mobile", "name": "University of Mobile", "zip": "36613", "state": "Alabama", "colors": "None", "address": "University of Mobile, 5735 College Pkwy, Mobile, AL 36613, USA", "lat": 30.7934, "logo": "upload.wikimedia.org/wikipedia/en/thumb/7/70/University_of_Mobile_main_logo.jpg/200px-University_of_Mobile_main_logo.jpg", "lng": -88.1316},
          {"website": "https://www.uab.edu/medicine/home/", "city": "Birmingham", "name": "University of Alabama School of Medicine", "zip": "35210", "state": "Alabama", "colors": "None", "address": "University Alabama School of Medicine, 510 20th Street South, Birmingham, AL 35210, USA", "lat": 33.5345, "logo": "upload.wikimedia.org/wikipedia/en/f/f9/UASOM_Seal.png", "lng": -86.7024},
          {"website": "www.hcu.edu", "city": "Florence", "name": "Heritage Christian University", "zip": "35630", "state": "Alabama", "colors": "None", "address": "Heritage Christian University, 3625 Helton Drive, Florence, AL 35630, USA", "lat": 34.8562, "logo": "upload.wikimedia.org/wikipedia/en/thumb/b/b0/Heritage_christian_logo.png/220px-Heritage_christian_logo.png", "lng": -87.663},
          {"website": "http://www.una.edu", "city": "Florence", "name": "University of North Alabama", "zip": "35632", "state": "Alabama", "colors": "None", "address": "University of North Alabama, 1 Harrison Plaza, Florence, AL 35632, USA", "lat": 34.8074, "logo": "upload.wikimedia.org/wikipedia/en/thumb/8/8a/UniversityNorthAlabamaLogo.jpg/125px-UniversityNorthAlabamaLogo.jpg", "lng": -87.68},
          {"website": "http://southernillinois.edu/", "city": "Carbondale", "name": "Southern Illinois University", "zip": "62901", "state": "Illinois", "colors": "None", "address": "Southern Illinois University, 1263 Lincoln Drive, Carbondale, IL 62901, USA", "lat": 37.7138, "logo": "upload.wikimedia.org/wikipedia/en/0/08/Siuseal.gif", "lng": -89.2117},
          {"website": "http://www.uaccm.edu", "city": "Morrilton", "name": "University of Arkansas Community College at Morrilton", "zip": "72110", "state": "Arkansas", "colors": "None", "address": "University of Arkansas Community College at Morrilton, 1537 University Boulevard, Morrilton, AR 72110, USA", "lat": 35.172, "logo": "upload.wikimedia.org/wikipedia/en/thumb/e/e5/UACCM_Logo_Full-Color.JPG/220px-UACCM_Logo_Full-Color.JPG", "lng": -92.7295},
          {"website": "www.webber.edu", "city": "Babson Park", "name": "Webber International University", "zip": "33827", "state": "Florida", "colors": "None", "address": "Webber International University, 1201 North Scenic Highway, Babson Park, FL 33827, USA", "lat": 27.8398, "logo": "upload.wikimedia.org/wikipedia/en/thumb/c/c5/Webber_Seal.PNG/100px-Webber_Seal.PNG", "lng": -81.5337},
          {"website": "http://www.ut.edu", "city": "Tampa", "name": "University of Tampa", "zip": "33606", "state": "Florida", "colors": "None", "address": "The University of Tampa, 401 West Kennedy Boulevard, Tampa, FL 33606, USA", "lat": 27.9475, "logo": "upload.wikimedia.org/wikipedia/en/e/ef/UT_logo_notag_small_web.png", "lng": -82.4671},
          {"website": "www.stetson.edu", "city": "DeLand", "name": "Stetson University", "zip": "32723", "state": "Florida", "colors": "None", "address": "Stetson University, 421 North Woodland Boulevard, DeLand, FL 32723, USA", "lat": 29.0356, "logo": "upload.wikimedia.org/wikipedia/en/thumb/a/a8/Stetson_Univ_Seal.svg/220px-Stetson_Univ_Seal.svg.png", "lng": -81.3034},
          {"website": "www.artinstitutes.edu/miami", "city": "Miami", "name": "Miami International University of Art & Design", "zip": "33132", "state": "Florida", "colors": "None", "address": "Miami International University of Art & Design, 1501 Biscayne Boulevard #100, Miami, FL 33132, USA", "lat": 25.7899, "logo": "upload.wikimedia.org/wikipedia/commons/b/bb/EXT..jpg", "lng": -80.1885},
          {"website": "fullsail.edu", "city": "Winter Park", "name": "Full Sail University", "zip": "32792", "state": "Florida", "colors": "None", "address": "Full Sail University, 3300 University Boulevard, Winter Park, FL 32792, USA", "lat": 28.5965, "logo": "upload.wikimedia.org/wikipedia/en/thumb/7/7d/Full_Sail_University.svg/172px-Full_Sail_University.svg.png", "lng": -81.3013},
          {"website": "www.warner.edu", "city": "Lake Wales", "name": "Warner University", "zip": "33859", "state": "Florida", "colors": "None", "address": "Warner University, Lake Wales, FL 33859, USA", "lat": 27.8263, "logo": "upload.wikimedia.org/wikipedia/en/thumb/1/19/WarnerUniv.png/150px-WarnerUniv.png", "lng": -81.6},
          {"website": "www.seu.edu", "city": "Lakeland", "name": "Southeastern University", "zip": "33801", "state": "Florida", "colors": "None", "address": "Southeastern University, 1000 Longfellow Boulevard, Lakeland, FL 33801, USA", "lat": 28.0288, "logo": "upload.wikimedia.org/wikipedia/en/e/e6/Seu_seal_small.png", "lng": -81.919},
          {"website": "www.saintleo.edu", "city": "St. Leo", "name": "Saint Leo University", "zip": "33525", "state": "Florida", "colors": "None", "address": "Saint Leo University, 33701 Florida 52, St. Leo, FL 33525, USA", "lat": 28.3375, "logo": "upload.wikimedia.org/wikipedia/en/thumb/6/6f/Saint_Leo_University_logo.png/150px-Saint_Leo_University_logo.png", "lng": -82.2567},
          {"website": "www.usf.edu", "city": "Tampa", "name": "University of South Florida", "zip": "33620", "state": "Florida", "colors": "None", "address": "University of South Florida, 4202 East Fowler Avenue, Tampa, FL 33620, USA", "lat": 28.0587, "logo": "upload.wikimedia.org/wikipedia/en/thumb/1/1d/University_of_South_Florida_Seal.svg/200px-University_of_South_Florida_Seal.svg.png", "lng": -82.4139},
          {"website": "www.unf.edu", "city": "Jacksonville", "name": "University of North Florida", "zip": "32224", "state": "Florida", "colors": "None", "address": "University of North Florida, 1 University of North Fl Drive, Jacksonville, FL 32224, USA", "lat": 30.2712, "logo": "upload.wikimedia.org/wikipedia/en/thumb/b/b7/UofNorthFloridaSeal.png/150px-UofNorthFloridaSeal.png", "lng": -81.5087},
          {"website": "fgcu.edu", "city": "Fort Myers", "name": "Florida Gulf Coast University", "zip": "33965", "state": "Florida", "colors": "None", "address": "Florida Gulf Coast University, 10501 FGCU Boulevard South, Fort Myers, FL 33965, USA", "lat": 26.464, "logo": "upload.wikimedia.org/wikipedia/en/thumb/1/19/FGCU_official_seal.svg/181px-FGCU_official_seal.svg.png", "lng": -81.7736},
          {"website": "ucf.edu", "city": "Orlando", "name": "University of Central Florida", "zip": "32816", "state": "Florida", "colors": "None", "address": "University of Central Florida, 4000 Central Florida Blvd, Orlando, FL 32816, USA", "lat": 28.6024, "logo": "upload.wikimedia.org/wikipedia/en/thumb/a/a2/UCF_Seal.svg/200px-UCF_Seal.svg.png", "lng": -81.2001},
          {"website": "www.shorter.edu", "city": "Rome", "name": "Shorter University", "zip": "30165", "state": "Georgia", "colors": "None", "address": "Shorter University, 315 Shorter Avenue Southwest, Rome, GA 30165, USA", "lat": 34.2598, "logo": "upload.wikimedia.org/wikipedia/en/b/be/ShorterUnivSeal.png", "lng": -85.1938},
          {"website": "www.reinhardt.edu", "city": "Waleska", "name": "Reinhardt University", "zip": "30183", "state": "Georgia", "colors": "None", "address": "Reinhardt University, 7300 Reinhardt College Circle, Waleska, GA 30183, USA", "lat": 34.3189, "logo": "upload.wikimedia.org/wikipedia/en/thumb/0/01/Reinhardt_College_Logo.gif/150px-Reinhardt_College_Logo.gif", "lng": -84.5524},
          {"website": "www.savannahstate.edu", "city": "Savannah", "name": "Savannah State University", "zip": "31404", "state": "Georgia", "colors": "None", "address": "Savannah State University, 3219 College Street, Savannah, GA 31404, USA", "lat": 32.0259, "logo": "upload.wikimedia.org/wikipedia/en/thumb/7/77/Savannah_State_University.png/180px-Savannah_State_University.png", "lng": -81.0698},
          {"website": "www.cau.edu", "city": "Atlanta", "name": "Clark Atlanta University", "zip": "30314", "state": "Georgia", "colors": "None", "address": "Clark Atlanta University, 223 James P Brawley Drive Southwest, Atlanta, GA 30314, USA", "lat": 33.7507, "logo": "upload.wikimedia.org/wikipedia/en/0/04/Causeal.jpg", "lng": -84.4098},
          {"website": "www.ung.edu", "city": "Albany", "name": "North Georgia College & State University", "zip": "31705", "state": "Georgia", "colors": "None", "address": "Albany State University, 504 College Drive, Albany, GA 31705, USA", "lat": 31.5716, "logo": "upload.wikimedia.org/wikipedia/en/thumb/3/36/NGCrest.jpg/220px-NGCrest.jpg", "lng": -84.1443},
          {"website": "www.asurams.edu", "city": "Albany", "name": "Albany State University", "zip": "31705", "state": "Georgia", "colors": "None", "address": "Albany State University, 504 College Drive, Albany, GA 31705, USA", "lat": 31.5716, "logo": "upload.wikimedia.org/wikipedia/en/thumb/1/10/Albany_State_University_Academic_Seal.jpg/125px-Albany_State_University_Academic_Seal.jpg", "lng": -84.1443},
          {"website": "www.clayton.edu", "city": "Morrow", "name": "Clayton State University", "zip": "30260", "state": "Georgia", "colors": "None", "address": "Clayton State University, 2000 Clayton State Boulevard, Morrow, GA 30260, USA", "lat": 33.5949, "logo": "upload.wikimedia.org/wikipedia/en/7/79/Clayton-state-seal.jpg", "lng": -84.329},
          {"website": "http://www.westga.edu", "city": "Carrollton", "name": "University of West Georgia", "zip": "30118", "state": "Georgia", "colors": "None", "address": "University of West Georgia, 1601 Maple Street, Carrollton, GA 30118, USA", "lat": 33.5734, "logo": "upload.wikimedia.org/wikipedia/en/thumb/6/6d/UWGSeal.png/190px-UWGSeal.png", "lng": -85.0987},
          {"website": "www.aug.edu", "city": "Augusta", "name": "Augusta State University", "zip": "30904", "state": "Georgia", "colors": "None", "address": "Augusta State University, Georgia Regents University - Summerville Campus, 2500 Walton Way, Augusta, GA 30904, USA", "lat": 33.4759, "logo": "upload.wikimedia.org/wikipedia/en/thumb/8/80/Augusta_State_University_Logo.gif/200px-Augusta_State_University_Logo.gif", "lng": -82.0233},
          {"website": "www.gsw.edu", "city": "Americus", "name": "Georgia Southwestern State University", "zip": "31709", "state": "Georgia", "colors": "None", "address": "Georgia Southwestern State University, 800 Georgia Southwestern State University Drive, Americus, GA 31709, USA", "lat": 32.056, "logo": "upload.wikimedia.org/wikipedia/en/7/70/GASouthwesternULogo.png", "lng": -84.2175},
          {"website": "www.columbusstate.edu", "city": "Columbus", "name": "Columbus State University", "zip": "31907", "state": "Georgia", "colors": "None", "address": "Columbus State University, 4225 University Avenue, Columbus, GA 31907, USA", "lat": 32.5022, "logo": "upload.wikimedia.org/wikipedia/en/thumb/f/ff/Columbus_State_University_logo.jpg/200px-Columbus_State_University_logo.jpg", "lng": -84.9416},
          {"website": "www.valdosta.edu", "city": "Valdosta", "name": "Valdosta State University", "zip": "31698", "state": "Georgia", "colors": "None", "address": "Valdosta State University, 1500 North Patterson Street, Valdosta, GA 31698, USA", "lat": 30.8469, "logo": "upload.wikimedia.org/wikipedia/commons/2/20/Seal1.png", "lng": -83.2894},
          {"website": "http://www.spalding.edu", "city": "Louisville", "name": "Spalding University", "zip": "40203", "state": "Kentucky", "colors": "None", "address": "Spalding University, 845 South Third Street, Louisville, KY 40203, USA", "lat": 38.2413, "logo": "upload.wikimedia.org/wikipedia/en/thumb/7/75/Spalding_university.jpg/250px-Spalding_university.jpg", "lng": -85.7573},
          {"website": "http://ucumberlands.edu", "city": "Williamsburg", "name": "University of the Cumberlands", "zip": "40769", "state": "Kentucky", "colors": "None", "address": "University of the Cumberlands, Williamsburg, KY 40769, USA", "lat": 36.7364, "logo": "upload.wikimedia.org/wikipedia/en/6/63/University_of_the_Cumberlands_seal.png", "lng": -84.1658},
          {"website": "www.xula.edu", "city": "New Orleans", "name": "Xavier University of Louisiana", "zip": "70125", "state": "Louisiana", "colors": "None", "address": "Xavier University of Louisiana, 1 Drexel Drive, New Orleans, LA 70125, USA", "lat": 29.9646, "logo": "upload.wikimedia.org/wikipedia/en/thumb/c/ca/Xulaseal.png/150px-Xulaseal.png", "lng": -90.1068},
          {"website": "www.loyno.edu", "city": "New Orleans", "name": "Loyola University New Orleans", "zip": "70118", "state": "Louisiana", "colors": "None", "address": "Loyola University New Orleans, 6363 Saint Charles Avenue, New Orleans, LA 70118, USA", "lat": 29.9341, "logo": "upload.wikimedia.org/wikipedia/en/9/9d/Loyolaseal.png", "lng": -90.1217},
          {"website": "www.dillard.edu", "city": "New Orleans", "name": "Dillard University", "zip": "70122", "state": "Louisiana", "colors": "None", "address": "Dillard University, 2601 Gentilly Boulevard, New Orleans, LA 70122, USA", "lat": 29.9948, "logo": "upload.wikimedia.org/wikipedia/en/5/50/Dillard_logonew.png", "lng": -90.0652},
          {"website": "www.susla.edu", "city": "Shreveport", "name": "Southern University at Shreveport", "zip": "71104", "state": "Louisiana", "colors": "None", "address": "Southern Avenue & College Street, Shreveport, LA 71104, USA", "lat": 32.491, "logo": "upload.wikimedia.org/wikipedia/en/thumb/3/36/Southern_University_at_Shreveport_seal.png/150px-Southern_University_at_Shreveport_seal.png", "lng": -93.7546},
          {"website": "www.suno.edu", "city": "New Orleans", "name": "Southern University at New Orleans", "zip": "70126", "state": "Louisiana", "colors": "None", "address": "Southern University, 6400 Press Drive, New Orleans, LA 70126, USA", "lat": 30.0282, "logo": "upload.wikimedia.org/wikipedia/commons/thumb/5/57/Main_SUNO_Marquee.jpg/200px-Main_SUNO_Marquee.jpg", "lng": -90.0414},
          {"website": "www.sus.edu", "city": "Baton Rouge", "name": "Southern University System", "zip": "70813", "state": "Louisiana", "colors": "None", "address": "Southern University System, Southern University and A&M College, J S Clark Administration Bldg #4, Baton Rouge, LA 70813, USA", "lat": 30.5212, "logo": "upload.wikimedia.org/wikipedia/en/thumb/8/82/Southern_university_system.png/220px-Southern_university_system.png", "lng": -91.1958},
          {"website": "www.subr.edu", "city": "Baton Rouge", "name": "Southern University", "zip": "70807", "state": "Louisiana", "colors": "None", "address": "Southern University and A&M College, 801 Harding Boulevard, Baton Rouge, LA 70807, USA", "lat": 30.5254, "logo": "upload.wikimedia.org/wikipedia/en/thumb/7/7c/SouthernUniversityLogo_2.jpg/220px-SouthernUniversityLogo_2.jpg", "lng": -91.1967},
          {"website": "ualr.edu", "city": "Little Rock", "name": "University of Arkansas at Little Rock", "zip": "72204", "state": "Arkansas", "colors": "None", "address": "University of Arkansas at Little Rock, 2801 South University Avenue, Little Rock, AR 72204, USA", "lat": 34.721, "logo": "upload.wikimedia.org/wikipedia/en/thumb/8/86/University_of_Arkansas_at_Little_Rock_Seal.png/160px-University_of_Arkansas_at_Little_Rock_Seal.png", "lng": -92.3395},
          {"website": "www.southalabama.edu", "city": "Mobile", "name": "University of South Alabama", "zip": "36688", "state": "Alabama", "colors": "None", "address": "University of South Alabama, 307 North University Boulevard, Mobile, AL 36688, USA", "lat": 30.6964, "logo": "upload.wikimedia.org/wikipedia/commons/c/c6/USA.gif", "lng": -88.1804},
          {"website": "www.ulm.edu", "city": "Monroe", "name": "University of Louisiana at Monroe", "zip": "71209", "state": "Louisiana", "colors": "None", "address": "The University of Louisiana at Monroe, 700 University Avenue, Monroe, LA 71209, USA", "lat": 32.5287, "logo": "upload.wikimedia.org/wikipedia/en/thumb/2/22/UL_Monroe_logo.png/125px-UL_Monroe_logo.png", "lng": -92.0724},
          {"website": "louisiana.edu", "city": "Lafayette", "name": "University of Louisiana at Lafayette", "zip": "70504", "state": "Louisiana", "colors": "None", "address": "University of Louisiana at Lafayette, 104 East University Avenue, Lafayette, LA 70504, USA", "lat": 30.2121, "logo": "upload.wikimedia.org/wikipedia/en/4/4c/UL-seal-for-Wiki.png", "lng": -92.0201},
          {"website": "www.gsu.edu", "city": "Atlanta", "name": "Georgia State University", "zip": "30302", "state": "Georgia", "colors": "None", "address": "Georgia State University, Atlanta, GA 30302, USA", "lat": 33.7531, "logo": "upload.wikimedia.org/wikipedia/en/thumb/c/c1/Georgia_State_University_Official_Seal.png/220px-Georgia_State_University_Official_Seal.png", "lng": -84.3853},
          {"website": "AState.edu", "city": "Jonesboro", "name": "Arkansas State University", "zip": "72401", "state": "Arkansas", "colors": "None", "address": "Arkansas State University, Jonesboro, AR 72401, USA", "lat": 35.8428, "logo": "upload.wikimedia.org/wikipedia/en/thumb/9/9e/Arkansas_State_University_Seal.png/200px-Arkansas_State_University_Seal.png", "lng": -90.677},
          {"website": "www.subr.edu", "city": "Baton Rouge", "name": "Southern University", "zip": "70807", "state": "Louisiana", "colors": "None", "address": "Southern University and A&M College, 801 Harding Boulevard, Baton Rouge, LA 70807, USA", "lat": 30.5254, "logo": "upload.wikimedia.org/wikipedia/en/thumb/7/7c/SouthernUniversityLogo_2.jpg/220px-SouthernUniversityLogo_2.jpg", "lng": -91.1967},
          {"website": "www.gram.edu", "city": "Grambling", "name": "Grambling State University", "zip": "71245", "state": "Louisiana", "colors": "None", "address": "Grambling State University, 403 Main Street, Grambling, LA 71245, USA", "lat": 32.5223, "logo": "upload.wikimedia.org/wikipedia/en/8/87/GSU_logo.PNG", "lng": -92.7175},
          {"website": "ufl.edu", "city": "Gainesville", "name": "University of Florida", "zip": "32611", "state": "Florida", "colors": "None", "address": "University of Florida, Gainesville, FL 32611, USA", "lat": 29.6453, "logo": "upload.wikimedia.org/wikipedia/en/e/ed/University_of_Florida_seal.png", "lng": -82.3464},
          {"website": "www.mcneese.edu", "city": "Lake Charles", "name": "McNeese State University", "zip": "70605", "state": "LA", "colors": "None", "address": "McNeese State University, Lake Charles, LA 70605", "lat": 30.1805, "logo": "upload.wikimedia.org/wikipedia/en/thumb/c/c3/McNeese_State_University_Official_Seal_Logo.jpg/220px-McNeese_State_University_Official_Seal_Logo.jpg", "lng": -93.2179},
          {"website": "www.uca.edu", "city": "Conway", "name": "University of Central Arkansas", "zip": "72035", "state": "Arkansas", "colors": "None", "address": "University of Central Arkansas, 201 Donaghey Avenue, Conway, AR 72035, USA", "lat": 35.0809, "logo": "upload.wikimedia.org/wikipedia/en/thumb/8/83/UnivCentralARSeal.png/160px-UnivCentralARSeal.png", "lng": -92.4549},
          {"website": "www.usao.edu", "city": "Chickasha", "name": "University of Science and Arts of Oklahoma", "zip": "73018", "state": "Oklahoma", "colors": "None", "address": "University of Science and Arts of Oklahoma, 1727 West Alabama Avenue, Chickasha, OK 73018, USA", "lat": 35.0297, "logo": "upload.wikimedia.org/wikipedia/en/5/5b/USAO_Logo.gif", "lng": -97.9546},
          {"website": "http://www.jbu.edu", "city": "Siloam Springs", "name": "John Brown University", "zip": "72761", "state": "Arkansas", "colors": "None", "address": "John Brown University, 2000 West University Street, Siloam Springs, AR 72761, USA", "lat": 36.1916, "logo": "upload.wikimedia.org/wikipedia/en/thumb/e/ea/John_Brown_University_stacked_logo.png/225px-John_Brown_University_stacked_logo.png", "lng": -94.5586},
          {"website": "marshall.edu", "city": "Huntington", "name": "Marshall University", "zip": "25755", "state": "West Virginia", "colors": "None", "address": "Marshall University, 1 John Marshall Drive, Huntington, WV 25755, USA", "lat": 38.4231, "logo": "upload.wikimedia.org/wikipedia/en/thumb/f/f2/Marshall_University_seal.svg/150px-Marshall_University_seal.svg.png", "lng": -82.4293},
          {"website": "LaTech.edu", "city": "Ruston", "name": "Louisiana Tech University", "zip": "71272", "state": "Louisiana", "colors": "None", "address": "Louisiana Tech University, 305 Wisteria Street, Ruston, LA 71272, USA", "lat": 32.5283, "logo": "upload.wikimedia.org/wikipedia/en/thumb/5/57/LouisianaTechSeal.png/220px-LouisianaTechSeal.png", "lng": -92.65},
          {"website": "http://www.uab.edu/", "city": "Birmingham", "name": "University of Alabama at Birmingham", "zip": "35233", "state": "Alabama", "colors": "None", "address": "University of Alabama at Birmingham, 1720 2nd Avenue South, Birmingham, AL 35233, USA", "lat": 33.4965, "logo": "upload.wikimedia.org/wikipedia/en/7/7a/University_of_Alabama_at_Birmingham_seal.png", "lng": -86.8095},
          {"website": "www.temple.edu", "city": "Philadelphia", "name": "Temple University", "zip": "19122", "state": "Pennsylvania", "colors": "None", "address": "Temple University, 1801 North Broad Street, Philadelphia, PA 19122, USA", "lat": 39.9821, "logo": "upload.wikimedia.org/wikipedia/en/thumb/5/58/Temple_University_Seal.png/220px-Temple_University_Seal.png", "lng": -75.1547},
          {"website": "www.fiu.edu", "city": "Miami", "name": "Florida International University", "zip": "33174", "state": "Florida", "colors": "None", "address": "Florida International University - Engineering Center, 10555 West Flagler Street, Miami, FL 33174, USA", "lat": 25.7701, "logo": "upload.wikimedia.org/wikipedia/en/thumb/9/9b/Florida_International_University_Seal.png/200px-Florida_International_University_Seal.png", "lng": -80.3672},
          {"website": "www.odu.edu", "city": "Norfolk", "name": "Old Dominion University", "zip": "23529", "state": "Virginia", "colors": "None", "address": "Old Dominion University, 5115 Hampton Boulevard, Norfolk, VA 23529, USA", "lat": 36.886, "logo": "upload.wikimedia.org/wikipedia/en/thumb/7/70/Old_Dominion_University_Logo.png/200px-Old_Dominion_University_Logo.png", "lng": -76.3044},
          {"website": "fau.edu", "city": "Boca Raton", "name": "Florida Atlantic University", "zip": "33431", "state": "Florida", "colors": "None", "address": "Florida Atlantic University, 777 Glades Road, Boca Raton, FL 33431, USA", "lat": 26.3744, "logo": "upload.wikimedia.org/wikipedia/en/thumb/f/f3/Florida_Atlantic_University_seal.svg/200px-Florida_Atlantic_University_seal.svg.png", "lng": -80.1043},
          {"website": "www.louisville.edu", "city": "Louisville", "name": "University of Louisville", "zip": "40292", "state": "Kentucky", "colors": "None", "address": "University of Louisville, Louisville, KY 40292, USA", "lat": 38.2101, "logo": "upload.wikimedia.org/wikipedia/en/thumb/d/d8/UofLouisvilleMinervaSeal.png/200px-UofLouisvilleMinervaSeal.png", "lng": -85.759},
          {"website": "www.rutgers.edu", "city": "New Brunswick", "name": "Rutgers University", "zip": "08901", "state": "New Jersey", "colors": "None", "address": "Rutgers University - Douglass Campus, 100 George Street, New Brunswick, NJ 08901, USA", "lat": 40.4787, "logo": "upload.wikimedia.org/wikipedia/en/thumb/c/ce/Rutgers%2C_The_State_University_of_New_Jersey_logo.png/200px-Rutgers%2C_The_State_University_of_New_Jersey_logo.png", "lng": -74.4318},
          {"website": "www.uc.edu", "city": "Cincinnati", "name": "University of Cincinnati", "zip": "45220", "state": "Ohio", "colors": "None", "address": "University of Cincinnati, University of Cincinnati - Medical College, 2600 Clifton Avenue, Cincinnati, OH 45220, USA", "lat": 39.1329, "logo": "upload.wikimedia.org/wikipedia/en/thumb/7/79/UC_Seal.svg/200px-UC_Seal.svg.png", "lng": -84.515},
          {"website": "UA.edu", "city": "Tuscaloosa", "name": "University of Alabama", "zip": "35487", "state": "Alabama", "colors": "None", "address": "The University of Alabama, Tuscaloosa, AL 35487, USA", "lat": 33.2144, "logo": "upload.wikimedia.org/wikipedia/en/2/28/BamaSeal.png", "lng": -87.5474},
          {"website": "www.uga.edu", "city": "Athens", "name": "University of Georgia", "zip": "30602", "state": "Georgia", "colors": "None", "address": "The University of Georgia, Athens, GA 30602, USA", "lat": 33.948, "logo": "upload.wikimedia.org/wikipedia/en/thumb/c/cf/Seal_of_the_University_of_Georgia.png/225px-Seal_of_the_University_of_Georgia.png", "lng": -83.3773},
          {"website": "www.sewanee.edu", "city": "Sewanee", "name": "Sewanee: The University of the South", "zip": "37383", "state": "Tennessee", "colors": "None", "address": "Sewanee: The University of the South, 735 University Avenue, Sewanee, TN 37383, USA", "lat": 35.205, "logo": "upload.wikimedia.org/wikipedia/en/1/12/The_Seal_of_The_University_of_the_South.png", "lng": -85.9209},
          {"website": "http://www.victory.edu/", "city": "Memphis", "name": "Victory University", "zip": "38111", "state": "Tennessee", "colors": "None", "address": "Victory University, 255 North Highland Street, Memphis, TN 38111, USA", "lat": 35.1387, "logo": "upload.wikimedia.org/wikipedia/commons/thumb/3/30/CritchtoninMemphis.jpg/220px-CritchtoninMemphis.jpg", "lng": -89.9454},
          {"website": "vanderbilt.edu", "city": "Nashville", "name": "Vanderbilt University", "zip": "37235", "state": "Tennessee", "colors": "None", "address": "Vanderbilt University, 2201 West End Avenue, Nashville, TN 37235, USA", "lat": 36.1444, "logo": "upload.wikimedia.org/wikipedia/en/thumb/f/ff/Vanderbilt_University_wordmark.svg/125px-Vanderbilt_University_wordmark.svg.png", "lng": -86.8027},
          {"website": "www.uu.edu", "city": "Jackson", "name": "Union University", "zip": "38305", "state": "Tennessee", "colors": "None", "address": "Union University, 1050 Union University Dr, Jackson, TN 38305, USA", "lat": 35.6766, "logo": "upload.wikimedia.org/wikipedia/en/6/6f/Union_Crest.jpg", "lng": -88.8588},
          {"website": "www.trevecca.edu", "city": "Nashville", "name": "Trevecca Nazarene University", "zip": "37210", "state": "Tennessee", "colors": "None", "address": "Trevecca Nazarene University, 333 Murfreesboro Pike, Nashville, TN 37210, USA", "lat": 36.1452, "logo": "upload.wikimedia.org/wikipedia/en/5/5c/Trevecca_Nazarene_University_seal.png", "lng": -86.7529},
          {"website": "www.southern.edu", "city": "Collegedale", "name": "Southern Adventist University", "zip": "37363", "state": "Tennessee", "colors": "None", "address": "Southern Adventist University, Taylor Circle, Collegedale, TN 37363, USA", "lat": 35.0482, "logo": "upload.wikimedia.org/wikipedia/en/9/90/Southern_Adventist_University_%28logo%29.png", "lng": -85.0517},
          {"website": "leeuniversity.edu", "city": "Cleveland", "name": "Lee University", "zip": "37311", "state": "Tennessee", "colors": "None", "address": "Lee University, 1120 North Ocoee Street, Cleveland, TN 37311, USA", "lat": 35.1682, "logo": "upload.wikimedia.org/wikipedia/en/7/74/Lee_University_Seal.png", "lng": -84.8685},
          {"website": "http://www.cumberland.edu", "city": "Lebanon", "name": "Cumberland University", "zip": "37087", "state": "Tennessee", "colors": "None", "address": "Cumberland University, 1 Cumberland Drive, Lebanon, TN 37087, USA", "lat": 36.204, "logo": "upload.wikimedia.org/wikipedia/en/thumb/2/20/Cumberland-logo.png/220px-Cumberland-logo.png", "lng": -86.3003},
          {"website": "www.belmont.edu", "city": "Nashville", "name": "Belmont University", "zip": "37212", "state": "Tennessee", "colors": "None", "address": "Belmont University, 1900 Belmont Boulevard, Nashville, TN 37212, USA", "lat": 36.1357, "logo": "upload.wikimedia.org/wikipedia/commons/thumb/8/80/WTN_EVula_100.jpg/220px-WTN_EVula_100.jpg", "lng": -86.7948},
          {"website": "www.sewanee.edu", "city": "Sewanee", "name": "Sewanee: The University of the South", "zip": "37383", "state": "Tennessee", "colors": "None", "address": "Sewanee: The University of the South, 735 University Avenue, Sewanee, TN 37383, USA", "lat": 35.205, "logo": "upload.wikimedia.org/wikipedia/en/1/12/The_Seal_of_The_University_of_the_South.png", "lng": -85.9209},
          {"website": "www.cn.edu", "city": "Jefferson City", "name": "Carson-Newman University", "zip": "37760", "state": "Tennessee", "colors": "None", "address": "Carson-Newman University, 1646 Russell Avenue, Jefferson City, TN 37760, USA", "lat": 36.1224, "logo": "upload.wikimedia.org/wikipedia/en/d/d3/CarsonNewmanCollegeLogo.jpg", "lng": -83.4904},
          {"website": "http://www.utc.edu", "city": "Chattanooga", "name": "University of Tennessee at Chattanooga", "zip": "37403", "state": "Tennessee", "colors": "None", "address": "The University of Tennessee at Chattanooga, 615 McCallie Avenue, Chattanooga, TN 37403, USA", "lat": 35.0465, "logo": "upload.wikimedia.org/wikipedia/en/7/75/University_of_Tennessee_at_Chattanooga_seal.png", "lng": -85.2956},
          {"website": "www.stjohns.edu", "city": "New York", "name": "St. John's University", "zip": "10007", "state": "New York", "colors": "None", "address": "St. John's University, 101 Murray Street, New York, NY 10007, USA", "lat": 40.7154, "logo": "upload.wikimedia.org/wikipedia/en/thumb/d/dd/St._John%27s_University_%28New_York%29_seal.png/175px-St._John%27s_University_%28New_York%29_seal.png", "lng": -74.0127},
          {"website": "www.marquette.edu", "city": "Milwaukee", "name": "Marquette University", "zip": "53233", "state": "Wisconsin", "colors": "None", "address": "Marquette University, 1250 West Wisconsin Avenue, Milwaukee, WI 53233, USA", "lat": 43.0389, "logo": "upload.wikimedia.org/wikipedia/en/thumb/a/a3/Marquette_University_Seal.svg/200px-Marquette_University_Seal.svg.png", "lng": -87.9304},
          {"website": "www.creighton.edu", "city": "Omaha", "name": "Creighton University", "zip": "68178", "state": "Nebraska", "colors": "None", "address": "Creighton University, 2500 California Plaza, Omaha, NE 68178, USA", "lat": 41.265, "logo": "upload.wikimedia.org/wikipedia/en/thumb/b/bf/CUSeal.svg/200px-CUSeal.svg.png", "lng": -95.9477},
          {"website": "www.butler.edu", "city": "Indianapolis", "name": "Butler University", "zip": "46208", "state": "Indiana", "colors": "None", "address": "Butler University, 4600 Sunset Avenue, Indianapolis, IN 46208, USA", "lat": 39.8396, "logo": "upload.wikimedia.org/wikipedia/en/thumb/6/6a/Butler_University_seal.svg/200px-Butler_University_seal.svg.png", "lng": -86.1697},
          {"website": "unl.edu", "city": "Lincoln", "name": "University of Nebraska-Lincoln", "zip": "68508", "state": "Nebraska", "colors": "None", "address": "University of Nebraska-Lincoln, 1400 R Street, Lincoln, NE 68508, USA", "lat": 40.8202, "logo": "upload.wikimedia.org/wikipedia/en/3/35/Unlofficialseal.png", "lng": -96.7005},
          {"website": "www.missouri.edu", "city": "Columbia", "name": "University of Missouri", "zip": "65211", "state": "Missouri", "colors": "None", "address": "University of Missouri, Columbia, MO 65211, USA", "lat": 38.9404, "logo": "upload.wikimedia.org/wikipedia/en/thumb/a/a1/University_of_Missouri_seal.png/187px-University_of_Missouri_seal.png", "lng": -92.3277},
          {"website": "colorado.edu", "city": "Boulder", "name": "University of Colorado Boulder", "zip": "80309", "state": "Colorado", "colors": "None", "address": "University of Colorado Boulder, Boulder, CO 80309, USA", "lat": 40.0076, "logo": "upload.wikimedia.org/wikipedia/en/thumb/2/21/CU_seal.png/200px-CU_seal.png", "lng": -105.2659},
          {"website": "www.georgetown.edu", "city": "Washington", "name": "Georgetown University", "zip": "20057", "state": "District of Columbia", "colors": "None", "address": "Georgetown University, 3700 O Street Northwest, Washington, DC 20057, USA", "lat": 38.9076, "logo": "upload.wikimedia.org/wikipedia/en/thumb/0/08/Georgetown_University_Seal.svg/150px-Georgetown_University_Seal.svg.png", "lng": -77.0723},
          {"website": "www.wvu.edu", "city": "Morgantown", "name": "West Virginia University", "zip": "26506", "state": "West Virginia", "colors": "None", "address": "West Virginia University, Morgantown, WV 26506, USA", "lat": 39.6361, "logo": "upload.wikimedia.org/wikipedia/en/thumb/8/88/West_Virginia_University_Seal.svg/220px-West_Virginia_University_Seal.svg.png", "lng": -79.9559},
          {"website": "www.stthom.edu", "city": "Saint Paul", "name": "University of St. Thomas", "zip": "55105", "state": "Minnesota", "colors": "None", "address": "University of St. Thomas, 2115 Summit Avenue, Saint Paul, MN 55105, USA", "lat": 44.9419, "logo": "upload.wikimedia.org/wikipedia/en/thumb/1/17/Seal_of_University_of_St._Thomas_%28Texas%29.svg/180px-Seal_of_University_of_St._Thomas_%28Texas%29.svg.png", "lng": -93.1897},
          {"website": "hsutx.edu", "city": "Abilene", "name": "Hardin-Simmons University", "zip": "79601", "state": "Texas", "colors": "None", "address": "Hardin-Simmons University, 2200 Hickory Street, Abilene, TX 79601, USA", "lat": 32.4776, "logo": "upload.wikimedia.org/wikipedia/en/2/23/HSU_Seal.png", "lng": -99.7349},
          {"website": "www.utb.edu", "city": "Brownsville", "name": "University of Texas at Brownsville", "zip": "78520", "state": "Texas", "colors": "None", "address": "University of Texas at Brownsville, 1 West University Boulevard, Brownsville, TX 78520, USA", "lat": 25.8932, "logo": "upload.wikimedia.org/wikipedia/commons/thumb/2/25/Utb_logo_2011.jpg/200px-Utb_logo_2011.jpg", "lng": -97.4867},
          {"website": "www.utsouthwestern.edu", "city": "Dallas", "name": "University of Texas Southwestern Medical Center", "zip": "75235", "state": "Texas", "colors": "None", "address": "University of Texas Southwestern Medical Center, 5323 Harry Hines Boulevard, Dallas, TX 75235, USA", "lat": 32.8123, "logo": "upload.wikimedia.org/wikipedia/en/3/33/University_of_Texas_Southwestern_Medical_School.jpeg", "lng": -96.8407},
          {"website": "www.utmb.edu", "city": "Galveston", "name": "University of Texas Medical Branch", "zip": "77550", "state": "Texas", "colors": "None", "address": "The University of Texas Medical Branch, 700 University Boulevard, Galveston, TX 77550, USA", "lat": 29.3077, "logo": "upload.wikimedia.org/wikipedia/commons/thumb/8/84/UTMB_seal.jpg/150px-UTMB_seal.jpg", "lng": -94.7728},
          {"website": "http://www.uth.edu/", "city": "Houston", "name": "University of Texas Health Science Center at Houston", "zip": "77030", "state": "Texas", "colors": "None", "address": "The University of Texas Health Science Center at Houston, 7000 Fannin Street, Houston, TX 77030, USA", "lat": 29.7032, "logo": "upload.wikimedia.org/wikipedia/en/b/b2/UTH-logo.jpg", "lng": -95.403},
          {"website": "unthsc.edu", "city": "Fort Worth", "name": "University of North Texas Health Science Center", "zip": "76107", "state": "Texas", "colors": "None", "address": "UNT Health Science Center, 3500 Camp Bowie Boulevard, Fort Worth, TX 76107, USA", "lat": 32.7495, "logo": "upload.wikimedia.org/wikipedia/commons/thumb/2/23/UNT_Health_Science_Center_Logo.jpg/250px-UNT_Health_Science_Center_Logo.jpg", "lng": -97.369},